Date,Address,City,State,FirstDraw,ThreeMin,FiveMin,Latitude,Longitude,Accuracy_S,Accuracy_T
11/8/2016,00 N. Lasalle St.,Chicago,Il,1,1,1,41.90771000000,-87.63296900000,0.60000000000,street_center
6/5/2016,100 E. Bellevue Pl.,Chicago,Il,1,1,1,41.90189800000,-87.62565800000,1.00000000000,rooftop
8/22/2018,100 E. 14th St.,Chicago,Il,1,1,1,41.86448800000,-87.62368700000,1.00000000000,rooftop
8/18/2018,100 E. 14th St.,Chicago,Il,1,1,1,41.86448800000,-87.62368700000,1.00000000000,rooftop
7/31/2018,100 N. La Salle St.,Chicago,Il,1,1,1,41.88345800000,-87.63277500000,1.00000000000,rooftop
7/12/2018,1000 N. Western Ave.,Chicago,Il,3,3,2,41.89950500000,-87.68732700000,1.00000000000,rooftop
2/4/2017,1000 W. Washington Blvd.,Chicago,Il,1,1,1,41.88381200000,-87.65267900000,1.00000000000,rooftop
1/25/2017,1000 W. Washington Blvd.,Chicago,Il,1,1,1,41.88381200000,-87.65267900000,1.00000000000,rooftop
12/14/2018,10000 S. Perry Ave.,Chicago,Il,1,2,1,41.71247000000,-87.62639100000,1.00000000000,rooftop
12/20/2018,10000 S. Prospect Ave.,Chicago,Il,1,1,1,41.71200100000,-87.66309900000,1.00000000000,rooftop
6/18/2018,10000 S. Exchange Ave.,Chicago,Il,5,3,3,41.71323000000,-87.55232800000,0.90000000000,range_interpolation
3/30/2018,10000 S. Morgan St.,Chicago,Il,2,6,1,41.71217200000,-87.64820900000,1.00000000000,rooftop
2/13/2019,10000 S Fairfield Ave,Chicago,Il,4,8,1,41.71162300000,-87.69078000000,1.00000000000,rooftop
7/6/2016,10000 S. Oakley Ave.,Chicago,Il,3,1,1,41.71168800000,-87.67972000000,1.00000000000,rooftop
3/23/2016,1000 N. Cleveland Ave.,Chicago,Il,1,1,1,41.90132600000,-87.64113700000,1.00000000000,range_interpolation
10/3/2017,1000 S. Plymouth Ct.,Chicago,Il,1,1,1,41.86980300000,-87.62956700000,1.00000000000,rooftop
6/6/2016,10000 S. Calhoun Ave.,Chicago,Il,4,5,10,41.71336900000,-87.56251700000,1.00000000000,rooftop
2/16/2019,10000 S Hamilton Ave,Chicago,Il,1,2,1,41.71178000000,-87.67573600000,1.00000000000,range_interpolation
2/23/2019,10000 S Artesian Ave,Chicago,Il,9,4,2,41.71173500000,-87.68342200000,1.00000000000,rooftop
12/7/2018,10000 S. Dr Martin Luther King Jr Dr.,Chicago,Il,2,4,1,41.71235000000,-87.61429500000,0.80000000000,nearest_rooftop_match
7/20/2017,1000 W. 18th St.,Chicago,Il,110,3,1,41.85535300000,-87.84498100000,0.90000000000,rooftop
7/8/2016,10000 S. Damen Ave.,Chicago,Il,2,5,2,41.71178000000,-87.67247800000,1.00000000000,rooftop
2/25/2019,10000 S. Hoyne Ave.,Chicago,Il,2,5,1,41.71175200000,-87.67489600000,1.00000000000,rooftop
2/5/2017,1000 E. 53rd St.,Chicago,Il,1,1,1,41.79990600000,-87.60184100000,1.00000000000,rooftop
10/27/2018,1000 W. Buena Ave.,Chicago,Il,1,1,1,41.95827800000,-87.65465600000,1.00000000000,range_interpolation
11/11/2018,10000 S Longwood Dr.,Chicago,Il,6,14,9,41.71189100000,-87.66889700000,1.00000000000,range_interpolation
3/11/2019,10000 S Fairfield Ave,Chicago,Il,2,6,1,41.71162300000,-87.69078000000,1.00000000000,rooftop
2/17/2019,10000 S California Ave,Chicago,Il,4,8,2,41.71159800000,-87.69167300000,1.00000000000,range_interpolation
6/23/2016,10000 S Washtenaw Ave,Chicago,Il,4,5,11,41.71163700000,-87.68955300000,1.00000000000,rooftop
3/10/2019,10000 S. Campbell Ave.,Chicago,Il,1,1,1,41.71172600000,-87.68464000000,1.00000000000,rooftop
10/19/2016,10000 S. Fairfield Ave.,Chicago,Il,2,2,2,41.71162300000,-87.69078000000,1.00000000000,rooftop
3/6/2019,10000 S Bell Ave,Chicago,Il,1,2,1,41.71172300000,-87.67852600000,1.00000000000,rooftop
4/23/2018,10000 S. Bell Ave.,Chicago,Il,2,3,2,41.71172300000,-87.67852600000,1.00000000000,rooftop
7/3/2016,10000 S. Oakley Ave.,Chicago,Il,2,2,2,41.71168800000,-87.67972000000,1.00000000000,rooftop
10/25/2018,10000 S. Hoyne Ave.,Chicago,Il,1,2,1,41.71175200000,-87.67489600000,1.00000000000,rooftop
7/30/2016,10000 S. Damen Ave.,Chicago,Il,2,2,1,41.71178000000,-87.67247800000,1.00000000000,rooftop
11/4/2018,10000 S. Oakley Ave.,Chicago,Il,6,2,1,41.71168800000,-87.67972000000,1.00000000000,rooftop
10/2/2016,10000 S. Hoyne Ave.,Chicago,Il,1,2,1,41.71175200000,-87.67489600000,1.00000000000,rooftop
10/2/2017,1000 N. Hoyne Ave.,Chicago,Il,1,1,1,41.89966800000,-87.67992500000,1.00000000000,rooftop
11/30/2018,1000 W. Webster Ave.,Chicago,Il,1,1,1,41.92158700000,-87.65348700000,1.00000000000,range_interpolation
9/29/2016,10000 S. Hamilton Ave.,Chicago,Il,3,3,3,41.71178000000,-87.67573600000,1.00000000000,range_interpolation
11/21/2018,10000 S. Winchester Ave.,Chicago,Il,6,6,3,41.71183800000,-87.67097400000,1.00000000000,rooftop
12/19/2018,10000 S. Carpenter St.,Chicago,Il,2,2,1,41.71213700000,-87.64939800000,1.00000000000,rooftop
7/4/2016,10000 S. Damen Ave.,Chicago,Il,2,6,2,41.71178000000,-87.67247800000,1.00000000000,rooftop
3/26/2017,10000 S. Seeley Ave.,Chicago,Il,7,3,2,41.71175900000,-87.67368700000,1.00000000000,rooftop
10/17/2016,1000 W. Cullerton St.,Chicago,Il,1,1,1,41.85550700000,-87.65166800000,1.00000000000,rooftop
12/10/2018,1000 W. Roscoe St.,Chicago,Il,1,1,1,41.94373100000,-87.65465400000,1.00000000000,rooftop
9/8/2016,1000 W 129th Pl,Chicago,Il,6,3,3,41.65866900000,-87.64631200000,1.00000000000,rooftop
6/30/2018,1000 N. Winchester Ave.,Chicago,Il,4,4,4,41.89972000000,-87.67593200000,1.00000000000,range_interpolation
8/11/2018,1000 S. Oakley Blvd.,Chicago,Il,1,1,1,41.86886900000,-87.68395900000,1.00000000000,rooftop
6/3/2016,1000 W. 102nd St.,Chicago,Il,3,7,2,41.70853800000,-87.64774400000,1.00000000000,range_interpolation
6/18/2017,1000 W. Dickens Ave.,Chicago,Il,4,9,16,41.91982100000,-87.65397000000,1.00000000000,rooftop
3/10/2019,100 W 104th St,Chicago,Il,7,7,2,41.70557900000,-87.62604200000,1.00000000000,rooftop
10/11/2016,10100 S. Seeley Ave.,Chicago,Il,4,11,10,41.71000700000,-87.67404300000,1.00000000000,rooftop
6/25/2018,10100 S. Hoyne Ave.,Chicago,Il,1,3,4,41.70994600000,-87.67576000000,1.00000000000,rooftop
1/25/2017,10100 S. Morgan St.,Chicago,Il,6,7,2,41.71036500000,-87.64816500000,1.00000000000,rooftop
8/5/2018,1000 N River Walk,Chicago,Il,1,1,1,41.88531000000,-87.62213000000,0.33000000000,place
8/27/2018,1000 N. Clark St.,Chicago,Il,1,1,1,41.90069300000,-87.63162800000,1.00000000000,rooftop
2/11/2019,10100 S Wentworth Ave,Chicago,Il,1,1,1,41.71061500000,-87.62875500000,1.00000000000,rooftop
12/13/2018,10100 S. Artesian Ave.,Chicago,Il,4,8,2,41.70988200000,-87.68336500000,1.00000000000,rooftop
1/11/2019,10100 S Talman Ave,Chicago,Il,6,6,2,41.70983000000,-87.68826100000,1.00000000000,rooftop
2/23/2019,10100 S Seeley Ave,Chicago,Il,3,7,2,41.71000700000,-87.67404300000,1.00000000000,rooftop
5/16/2016,10100 S. Indiana,Chicago,Il,2,2,1,41.71074900000,-87.61907000000,1.00000000000,rooftop
2/21/2019,10100 S Hoxie Ave,Chicago,Il,2,2,1,41.71162200000,-87.56128300000,1.00000000000,rooftop
8/4/2016,10100 S. Seeley Ave.,Chicago,Il,5,4,2,41.71000700000,-87.67404300000,1.00000000000,rooftop
6/16/2018,10100 S. Eberhart Ave.,Chicago,Il,2,1,1,41.71086900000,-87.61178300000,1.00000000000,rooftop
7/8/2018,1000 N. Wood St.,Chicago,Il,1,1,1,41.89975600000,-87.67263800000,1.00000000000,rooftop
12/2/2018,10100 S Prospect Ave.,Chicago,Il,7,6,6,41.70993200000,-87.66238400000,1.00000000000,range_interpolation
7/11/2016,10100 S. Artesian Ave.,Chicago,Il,2,4,1,41.70988200000,-87.68336500000,1.00000000000,rooftop
7/11/2016,10100 S. Emerald Ave.,Chicago,Il,2,1,1,41.71045000000,-87.64206800000,1.00000000000,rooftop
7/11/2016,10100 S. Beverly Ave.,Chicago,Il,4,12,6,41.71024100000,-87.65807300000,1.00000000000,rooftop
2/18/2019,10100 S Fairfield Ave,Chicago,Il,10,10,4,41.70979200000,-87.69036600000,1.00000000000,range_interpolation
2/10/2019,1000 N Karlov Ave,Chicago,Il,3,3,1,41.89911200000,-87.72901800000,1.00000000000,rooftop
2/3/2019,10100 S Wallace St,Chicago,Il,3,3,3,41.71049200000,-87.63842800000,1.00000000000,rooftop
11/27/2018,10100 S Beverly Ave,Chicago,Il,1,1,1,41.71024100000,-87.65807300000,1.00000000000,rooftop
2/25/2019,10100 S Lafayette Ave,Chicago,Il,4,11,2,41.71065000000,-87.62515100000,1.00000000000,rooftop
8/20/2018,1000 W. Oakdale Ave.,Chicago,Il,2,3,1,41.93520800000,-87.65395000000,1.00000000000,range_interpolation
7/10/2016,10100 S. Prospect Ave.,Chicago,Il,3,3,3,41.70993200000,-87.66238400000,1.00000000000,range_interpolation
11/13/2018,10100 S. Bell Ave.,Chicago,Il,1,1,1,41.70987600000,-87.67897300000,1.00000000000,rooftop
3/9/2018,10100 S. Indiana Ave.,Chicago,Il,3,1,1,41.71074900000,-87.61907000000,1.00000000000,rooftop
2/14/2019,1000 N Central Park Ave,Chicago,Il,6,7,7,41.89862300000,-87.76588300000,1.00000000000,rooftop
9/4/2018,1000 W. 32nd St.,Chicago,Il,1,1,1,41.83601200000,-87.65109900000,1.00000000000,range_interpolation
11/17/2017,1000 N. Hermitage Ave.,Chicago,Il,2,1,1,41.89980000000,-87.67105900000,1.00000000000,range_interpolation
8/31/2017,1000 N. Mozart St.,Chicago,Il,1,2,1,41.89940200000,-87.69839900000,1.00000000000,rooftop
6/7/2016,1000 E. Hyde Park Blvd.,Chicago,Il,1,1,1,41.80246200000,-87.60151300000,1.00000000000,range_interpolation
1/21/2019,1000 N Wood St,Chicago,Il,3,2,1,41.89975600000,-87.67263800000,1.00000000000,rooftop
1/17/2019,1000 N. Marshfield Ave.,Chicago,Il,1,1,1,41.89983700000,-87.66860200000,1.00000000000,range_interpolation
7/11/2018,1000 S. Wabash Ave.,Chicago,Il,1,1,1,41.86980100000,-87.62637900000,1.00000000000,rooftop
1/27/2019,1000 S. Wabash Ave.,Chicago,Il,1,1,1,41.86980100000,-87.62637900000,1.00000000000,rooftop
7/26/2018,1000 W. Dakin St.,Chicago,Il,2,1,1,41.95336000000,-87.65451600000,1.00000000000,range_interpolation
2/19/2019,10200 S Rhodes Ave,Chicago,Il,4,3,2,41.70903400000,-87.61051400000,1.00000000000,rooftop
9/25/2016,10200 S. Leavitt St.,Chicago,Il,3,3,3,41.70810800000,-87.67730800000,1.00000000000,rooftop
7/23/2016,10200 S. Beverly Ave.,Chicago,Il,5,4,3,41.70878100000,-87.65733400000,1.00000000000,rooftop
8/16/2016,10200 S. Aberdeen St.,Chicago,Il,5,10,5,41.70851900000,-87.65017600000,1.00000000000,range_interpolation
8/6/2016,10200 S. Springfield Ave.,Chicago,Il,4,9,3,41.70700200000,-87.71839400000,0.90000000000,range_interpolation
7/3/2018,10200 S Leavitt St,Chicago,Il,2,4,2,41.70810800000,-87.67730800000,1.00000000000,rooftop
11/15/2018,10200 S. Forest Ave.,Chicago,Il,4,4,10,41.70896000000,-87.61660500000,1.00000000000,rooftop
8/1/2016,10200 S. Crandon Ave.,Chicago,Il,3,6,1,41.70973300000,-87.56730200000,1.00000000000,rooftop
8/6/2016,10200 S. Seeley Ave.,Chicago,Il,3,2,2,41.70769700000,-87.67345000000,1.00000000000,range_interpolation
9/22/2018,1000 N. Hermitage Ave.,Chicago,Il,1,1,1,41.89980000000,-87.67105900000,1.00000000000,range_interpolation
11/30/2016,10200 S. Artesian Ave.,Chicago,Il,3,2,1,41.70803900000,-87.68330900000,1.00000000000,rooftop
11/21/2018,10200 S Seeley Ave.,Chicago,Il,2,1,1,41.70769700000,-87.67345000000,1.00000000000,range_interpolation
10/22/2016,10200 S. Artesian Ave.,Chicago,Il,6,15,5,41.70803900000,-87.68330900000,1.00000000000,rooftop
7/24/2016,10200 S. California Ave.,Chicago,Il,1,1,1,41.70795900000,-87.69155500000,1.00000000000,range_interpolation
11/4/2018,1000 E 49th St.,Chicago,Il,2,1,1,41.80609800000,-87.60162900000,1.00000000000,range_interpolation
12/25/2018,1000 N. Hermitage Ave.,Chicago,Il,1,1,1,41.89980000000,-87.67105900000,1.00000000000,range_interpolation
11/29/2018,1000 N. Oakley Blvd.,Chicago,Il,1,1,1,41.89958900000,-87.68481300000,1.00000000000,rooftop
5/22/2018,1000 N. Paulina St.,Chicago,Il,1,1,1,41.89981800000,-87.66983800000,1.00000000000,range_interpolation
8/12/2018,1000 W Fry St.,Chicago,Il,1,1,1,41.89688000000,-87.65872000000,1.00000000000,rooftop
12/15/2018,10200 S. California Ave.,Chicago,Il,4,6,8,41.70795900000,-87.69155500000,1.00000000000,range_interpolation
11/11/2018,10200 S. Albany Ave.,Chicago,Il,1,1,1,41.70696300000,-87.69843900000,1.00000000000,range_interpolation
9/7/2016,1000 N. Honore St,Chicago,Il,1,1,1,41.89976300000,-87.67348800000,1.00000000000,range_interpolation
2/12/2016,1000 W. 102nd St.*,Chicago,Il,1,1,1,41.70853800000,-87.64774400000,1.00000000000,range_interpolation
4/21/2016,1000 W. 102nd St.,Chicago,Il,2,1,1,41.70853800000,-87.64774400000,1.00000000000,range_interpolation
7/30/2018,1000 W. Vernon Park Pl.,Chicago,Il,1,1,1,41.87284200000,-87.65535800000,1.00000000000,range_interpolation
12/7/2018,10200 S Whipple St,Chicago,Il,2,6,1,41.70698200000,-87.69728700000,1.00000000000,range_interpolation
6/21/2016,10200 S. Whipple St.,Chicago,Il,1,1,1,41.70698200000,-87.69728700000,1.00000000000,range_interpolation
6/3/2016,1000 N. Winchester Ave.,Chicago,Il,1,1,1,41.89972000000,-87.67593200000,1.00000000000,range_interpolation
8/29/2016,1000 N. Lawndale Ave.,Chicago,Il,13,4,4,41.89925000000,-87.71923600000,1.00000000000,rooftop
2/10/2019,1000 S Claremont Ave,Chicago,Il,2,2,2,41.86884400000,-87.68487700000,1.00000000000,range_interpolation
8/1/2017,1000 E. 49th St.,Chicago,Il,1,1,1,41.80609800000,-87.60162900000,1.00000000000,range_interpolation
1/25/2018,1000 N. State St.,Chicago,Il,1,1,1,41.90080000000,-87.62893800000,1.00000000000,rooftop
3/13/2017,1000 N. State St.,Chicago,Il,1,1,1,41.90080000000,-87.62893800000,1.00000000000,rooftop
8/16/2016,1000 W. Byron St.,Chicago,Il,1,1,1,41.95252300000,-87.65449000000,1.00000000000,range_interpolation
3/7/2019,10300 S Hoyne Ave,Chicago,Il,4,4,2,41.70633600000,-87.67472100000,1.00000000000,rooftop
6/30/2018,10300 S. Christiana Ave.,Chicago,Il,4,7,3,41.70597600000,-87.70540200000,1.00000000000,rooftop
1/6/2019,10300 S. Leavitt St.,Chicago,Il,1,1,1,41.70619200000,-87.67700700000,1.00000000000,rooftop
3/10/2019,10300 S Spaulding Ave,Chicago,Il,7,3,3,41.70599400000,-87.70421400000,1.00000000000,rooftop
10/3/2016,10300 S. Whipple St.,Chicago,Il,6,4,4,41.70608800000,-87.69782200000,1.00000000000,range_interpolation
7/31/2018,10300 S. Hamilton Ave.,Chicago,Il,1,2,2,41.70631200000,-87.67592400000,1.00000000000,rooftop
8/13/2016,10300 S. Hamilton Ave.,Chicago,Il,8,16,13,41.70631200000,-87.67592400000,1.00000000000,rooftop
9/28/2016,10300 S. Hamilton Ave.,Chicago,Il,0,0,0,41.70631200000,-87.67592400000,1.00000000000,rooftop
6/16/2018,10300 S. California Ave.,Chicago,Il,1,1,1,41.70616400000,-87.69147400000,1.00000000000,range_interpolation
2/11/2019,10300 S Leavitt St,Chicago,Il,2,2,2,41.70619200000,-87.67700700000,1.00000000000,rooftop
12/28/2018,10300 S. Homan Ave.,Chicago,Il,2,1,1,41.70595800000,-87.70661700000,1.00000000000,rooftop
6/5/2018,10300 S. Crandon Ave.,Chicago,Il,5,5,4,41.70791500000,-87.56692700000,1.00000000000,range_interpolation
7/7/2016,10300 S. St. Louis Ave.,Chicago,Il,2,17,7,41.70592000000,-87.70912500000,1.00000000000,rooftop
8/26/2016,10300 S. St. Louis Ave.,Chicago,Il,0,0,0,41.70592000000,-87.70912500000,1.00000000000,rooftop
10/21/2016,10300 S. Hamilton Ave.,Chicago,Il,4,4,4,41.70631200000,-87.67592400000,1.00000000000,rooftop
3/8/2019,10300 S Bensley Ave,Chicago,Il,1,1,1,41.70797000000,-87.56330200000,1.00000000000,range_interpolation
12/7/2018,1000 N. Monitor Ave.,Chicago,Il,1,1,1,41.89857000000,-87.77189200000,1.00000000000,rooftop
10/5/2016,10300 S. Hamlin Ave.,Chicago,Il,5,15,7,41.70582500000,-87.71601000000,1.00000000000,range_interpolation
,10300 S. Hamlin Ave.,Chicago,Il,0,0,0,41.70582500000,-87.71601000000,1.00000000000,range_interpolation
8/7/2018,10300 S California Ave.,Chicago,Il,1,1,1,41.70616400000,-87.69147400000,1.00000000000,range_interpolation
9/22/2016,10300 S. Peoria St.,Chicago,Il,10,4,3,41.70674300000,-87.64526300000,1.00000000000,range_interpolation
8/13/2018,10300 S. Wood St.,Chicago,Il,2,2,1,41.70646400000,-87.66710400000,1.00000000000,range_interpolation
2/26/2019,10300 S Artesian Ave,Chicago,Il,1,1,1,41.70622800000,-87.68289600000,1.00000000000,range_interpolation
7/2/2018,10300 S Bell Ave,Chicago,Il,1,2,2,41.70627800000,-87.67799500000,1.00000000000,range_interpolation
7/10/2016,10300 S. Talman Ave.,Chicago,Il,3,7,2,41.70618400000,-87.68871800000,1.00000000000,rooftop
6/14/2018,1000 E 47th St,Chicago,Il,1,1,1,41.81000400000,-87.60133000000,1.00000000000,rooftop
1/16/2019,1000 S. Oakley Blvd.,Chicago,Il,9,5,2,41.86886900000,-87.68395900000,1.00000000000,rooftop
5/10/2017,10300 S. Talman Ave.,Chicago,Il,2,1,1,41.70618400000,-87.68871800000,1.00000000000,rooftop
12/9/2018,10300 S Avenue G,Chicago,Il,2,5,2,41.70806800000,-87.53166000000,1.00000000000,range_interpolation
8/22/2018,10300 S. Millard Ave.,Chicago,Il,1,1,1,41.70542000000,-87.71232900000,1.00000000000,range_interpolation
1/21/2018,1000 W. Barry Ave.,Chicago,Il,1,1,1,41.93793900000,-87.65404400000,1.00000000000,range_interpolation
11/7/2018,1000 W. Lill Ave.,Chicago,Il,1,1,1,41.92795000000,-87.65370200000,1.00000000000,range_interpolation
6/17/2018,1000 W. Van Buren St.,Chicago,Il,1,1,1,41.87683300000,-87.65222400000,1.00000000000,rooftop
8/21/2016,10300 S. Hamlin Ave.,Chicago,Il,3,2,2,41.70582500000,-87.71601000000,1.00000000000,range_interpolation
2/11/2019,10300 S Fairfield Ave,Chicago,Il,4,3,3,41.70616600000,-87.69030000000,1.00000000000,rooftop
9/19/2016,10300 S. Lawndale Ave.,Chicago,Il,7,1,1,41.70586500000,-87.71356900000,1.00000000000,range_interpolation
2/24/2019,10300 S Sawyer Ave,Chicago,Il,2,1,1,41.70600000000,-87.70292200000,1.00000000000,rooftop
6/25/2016,10300 S. Albany Ave.,Chicago,Il,2,1,1,41.70590900000,-87.69918000000,1.00000000000,rooftop
7/18/2016,10300 S. Troy St.,Chicago,Il,2,6,3,41.70592000000,-87.70037900000,1.00000000000,rooftop
3/9/2019,10300 S Whipple St,Chicago,Il,2,2,1,41.70608800000,-87.69782200000,1.00000000000,range_interpolation
7/23/2018,10300 S. Christiana Ave.,Chicago,Il,3,14,3,41.70597600000,-87.70540200000,1.00000000000,rooftop
7/25/2016,10300 S. Prospect Ave.,Chicago,Il,7,17,8,41.70655400000,-87.66249500000,1.00000000000,rooftop
10/8/2016,10300 S. Prospect Ave.,Chicago,Il,0,0,0,41.70655400000,-87.66249500000,1.00000000000,rooftop
3/10/2019,10300 S Drake Ave,Chicago,Il,3,4,1,41.70582200000,-87.71013700000,1.00000000000,rooftop
2/10/2019,10300 S. St. Louis Ave.,Chicago,Il,2,6,1,41.70592000000,-87.70912500000,1.00000000000,rooftop
7/23/2016,1000 N. La Salle Dr.,Chicago,Il,2,2,1,41.90066600000,-87.63322500000,1.00000000000,rooftop
6/24/2018,1000 N. Crosby St.,Chicago,Il,1,1,1,41.90023000000,-87.64406100000,1.00000000000,rooftop
1/17/2017,1000 N. Honore St.,Chicago,Il,6,2,2,41.89976300000,-87.67348800000,1.00000000000,range_interpolation
6/18/2017,100 W. Oak St.,Chicago,Il,1,1,1,41.90040200000,-87.63134900000,1.00000000000,range_interpolation
10/29/2018,1000 N. Paulina St.,Chicago,Il,1,1,1,41.89981800000,-87.66983800000,1.00000000000,range_interpolation
3/14/2017,1000 W. Balmoral Ave.,Chicago,Il,1,1,1,41.97990000000,-87.65508700000,1.00000000000,range_interpolation
6/21/2018,1000 W. Catalpa Ave.,Chicago,Il,1,1,1,41.98172800000,-87.65514000000,1.00000000000,range_interpolation
8/14/2018,1000 W. Granville Ave.,Chicago,Il,1,1,1,41.99444800000,-87.65552400000,1.00000000000,range_interpolation
7/31/2016,10400 S. Trumball Ave.,Chicago,Il,15,20,3,41.70412000000,-87.70782400000,1.00000000000,rooftop
1/13/2017,10400 S. Trumball Ave.,Chicago,Il,0,0,0,41.70412000000,-87.70782400000,1.00000000000,rooftop
7/30/2016,10400 S. Walden Pkwy.,Chicago,Il,4,3,6,41.70474200000,-87.66946600000,1.00000000000,range_interpolation
7/28/2016,10400 S. Hamilton Ave.,Chicago,Il,4,2,1,41.70448000000,-87.67586500000,1.00000000000,rooftop
11/23/2016,10400 S. Springfield Ave.,Chicago,Il,3,3,1,41.70387200000,-87.71863700000,1.00000000000,rooftop
5/16/2017,10400 S. Homan Ave.,Chicago,Il,3,2,1,41.70414100000,-87.70655000000,1.00000000000,rooftop
2/21/2019,10400 S Campbell Ave,Chicago,Il,1,1,1,41.70440400000,-87.68441200000,1.00000000000,rooftop
4/9/2016,10400 S. Campbell Ave.,Chicago,Il,1,2,1,41.70440400000,-87.68441200000,1.00000000000,rooftop
2/27/2016,10400 S. Campbell Ave.*,Chicago,Il,1,2,1,41.70440400000,-87.68441200000,1.00000000000,rooftop
4/7/2016,10400 S. Central Park Ave.,Chicago,Il,2,5,1,41.70398900000,-87.71144900000,1.00000000000,rooftop
2/10/2016,10400 S. Central Park Ave.*,Chicago,Il,4,4,1,41.70398900000,-87.71144900000,1.00000000000,rooftop
9/27/2016,10400 S. Springfield Ave.,Chicago,Il,2,9,2,41.70387200000,-87.71863700000,1.00000000000,rooftop
11/27/2018,10400 S. Artesian Ave.,Chicago,Il,3,6,2,41.70441000000,-87.68283900000,1.00000000000,range_interpolation
1/22/2019,10400 S M St,Chicago,Il,1,1,1,41.70303500000,-87.65117500000,0.60000000000,nearest_rooftop_match
6/4/2018,10400 S. Hoyne Ave.,Chicago,Il,3,4,2,41.70436600000,-87.67465900000,1.00000000000,rooftop
12/6/2018,10400 S. Maplewood Ave.,Chicago,Il,2,2,1,41.70438300000,-87.68562700000,1.00000000000,rooftop
9/26/2016,10400 S. Longwood Dr.,Chicago,Il,4,5,5,41.70457000000,-87.67167300000,1.00000000000,rooftop
10/11/2016,10400 S. Ave. G,Chicago,Il,2,4,3,41.70623500000,-87.53165700000,1.00000000000,range_interpolation
8/5/2016,10400 S. Green St.,Chicago,Il,8,11,4,41.70495700000,-87.64433900000,1.00000000000,rooftop
2/18/2019,10400 S Prospect Ave,Chicago,Il,2,1,1,41.70473200000,-87.66256000000,1.00000000000,rooftop
7/29/2018,10400 S. Leavitt St.,Chicago,Il,4,5,4,41.70446400000,-87.67708500000,1.00000000000,rooftop
7/31/2016,10400 S. Whipple St.,Chicago,Il,1,1,1,41.70426900000,-87.69809900000,1.00000000000,rooftop
11/26/2016,10400 S. Whipple St.,Chicago,Il,4,5,2,41.70426900000,-87.69809900000,1.00000000000,rooftop
8/14/2018,1000 N. Kedzie Ave.,Chicago,Il,2,2,2,41.89933400000,-87.70705800000,1.00000000000,rooftop
8/9/2016,1000 W. Dakin St.,Chicago,Il,2,2,4,41.95336000000,-87.65451600000,1.00000000000,range_interpolation
7/24/2016,1000 W. Grace St.,Chicago,Il,2,1,1,41.95097400000,-87.65444300000,1.00000000000,range_interpolation
3/5/2019,10400 S Sacramento Ave,Chicago,Il,2,7,1,41.70428200000,-87.69695100000,1.00000000000,rooftop
2/5/2017,10400 S. Hoyne Ave.,Chicago,Il,2,2,1,41.70436600000,-87.67465900000,1.00000000000,rooftop
10/30/2018,10400 S. Avenue N,Chicago,Il,2,1,1,41.70624300000,-87.54012200000,1.00000000000,range_interpolation
6/29/2016,10400 S. Millard Ave.,Chicago,Il,5,8,3,41.70403300000,-87.71227200000,1.00000000000,range_interpolation
1/23/2018,10400 S. Seeley Ave.,Chicago,Il,1,1,1,41.70452500000,-87.67337200000,1.00000000000,rooftop
12/12/2016,10400 S. Sawyer Ave.,Chicago,Il,1,1,1,41.70419500000,-87.70285000000,1.00000000000,rooftop
1/3/2019,10400 S. Troy St.,Chicago,Il,4,4,1,41.70424300000,-87.70045600000,1.00000000000,rooftop
2/23/2016,10400 S. Vernon Ave.,Chicago,Il,26,4,2,41.70537900000,-87.61284600000,1.00000000000,rooftop
,10400 S. Vernon Ave.,Chicago,Il,0,0,0,41.70537900000,-87.61284600000,1.00000000000,rooftop
2/21/2019,10400 S. Talman Ave.,Chicago,Il,2,4,2,41.70435400000,-87.68825900000,1.00000000000,range_interpolation
6/30/2016,10400 S. Avers Ave.,Chicago,Il,1,2,1,41.70395700000,-87.71716000000,1.00000000000,range_interpolation
2/3/2019,10400 S M St,Chicago,Il,4,2,2,41.70303500000,-87.65117500000,0.60000000000,nearest_rooftop_match
5/31/2016,10400 S. Calumet Ave.,Chicago,Il,3,4,2,41.70534200000,-87.61529100000,1.00000000000,rooftop
3/20/2019,10400 S Oakley Ave,Chicago,Il,1,3,1,41.70442000000,-87.67949800000,1.00000000000,rooftop
3/6/2019,10400 S Wentworth Ave,Chicago,Il,2,1,1,41.70511000000,-87.62853000000,1.00000000000,rooftop
7/28/2016,10400 S. Whipple St.,Chicago,Il,2,1,1,41.70426900000,-87.69809900000,1.00000000000,rooftop
7/6/2016,10400 S. Troy St.,Chicago,Il,2,4,2,41.70424300000,-87.70045600000,1.00000000000,rooftop
11/19/2018,1000 N. Mayfield Ave.,Chicago,Il,1,4,2,41.89853700000,-87.77281500000,1.00000000000,range_interpolation
2/5/2019,10400 S Trumbull Ave,Chicago,Il,3,6,1,41.70412000000,-87.70782400000,1.00000000000,rooftop
7/2/2018,10400 S. Dr Martin Luther King Jr Dr.,Chicago,Il,6,9,4,41.70533600000,-87.61409200000,1.00000000000,rooftop
12/3/2018,10400 S. Talman Ave.,Chicago,Il,4,3,1,41.70435400000,-87.68825900000,1.00000000000,range_interpolation
9/24/2016,10400 S. Artesian Ave.,Chicago,Il,5,2,1,41.70441000000,-87.68283900000,1.00000000000,range_interpolation
5/12/2018,10400 S. Avers Ave.,Chicago,Il,3,10,2,41.70395700000,-87.71716000000,1.00000000000,range_interpolation
12/30/2018,10400 S. Homan Ave.,Chicago,Il,1,1,1,41.70414100000,-87.70655000000,1.00000000000,rooftop
6/3/2016,10400 S. Trumbull Ave.,Chicago,Il,1,2,1,41.70412000000,-87.70782400000,1.00000000000,rooftop
3/14/2019,10400 S Hamilton Ave,Chicago,Il,2,7,2,41.70448000000,-87.67586500000,1.00000000000,rooftop
7/7/2016,10400 S. Sawyer Ave.,Chicago,Il,2,2,2,41.70419500000,-87.70285000000,1.00000000000,rooftop
3/9/2019,10400 S Troy St,Chicago,Il,2,5,2,41.70424300000,-87.70045600000,1.00000000000,rooftop
10/13/2016,10400 S. St Louis Ave.,Chicago,Il,1,1,1,41.70417400000,-87.70899100000,1.00000000000,rooftop
6/5/2016,10400 S. Seeley Ave.,Chicago,Il,1,2,1,41.70452500000,-87.67337200000,1.00000000000,rooftop
7/29/2018,10400 S. Drake Ave.,Chicago,Il,3,3,2,41.70406700000,-87.71019600000,1.00000000000,rooftop
3/11/2019,10400 S Prospect Ave,Chicago,Il,1,1,1,41.70473200000,-87.66256000000,1.00000000000,rooftop
11/26/2018,10400 S. Albany Ave.,Chicago,Il,1,1,1,41.70423900000,-87.69927400000,1.00000000000,rooftop
4/17/2018,10400 S. Albany Ave.,Chicago,Il,2,4,4,41.70423900000,-87.69927400000,1.00000000000,rooftop
7/29/2018,1000 W. Lawrence Ave.,Chicago,Il,1,1,1,41.96893000000,-87.65550100000,1.00000000000,range_interpolation
10/9/2016,100 N. Damen Ave.,Chicago,Il,2,2,2,41.88329700000,-87.67668900000,1.00000000000,range_interpolation
6/2/2018,1000 W. Albion Ave.,Chicago,Il,3,6,2,42.00245100000,-87.65731600000,1.00000000000,range_interpolation
10/29/2018,1000 S. Plymouth Ct.,Chicago,Il,1,1,1,41.86980300000,-87.62956700000,1.00000000000,rooftop
7/8/2018,1000 W Foster Ave,Chicago,Il,1,1,1,41.97624600000,-87.65499200000,1.00000000000,range_interpolation
7/4/2016,1000 W. Foster Ave.,Chicago,Il,1,1,1,41.97624600000,-87.65499200000,1.00000000000,range_interpolation
8/13/2018,1000 W. 37th St.,Chicago,Il,1,1,1,41.82685800000,-87.65087500000,1.00000000000,range_interpolation
7/8/2018,1000 N. Leavitt St.,Chicago,Il,1,1,1,41.89699200000,-87.68321100000,1.00000000000,rooftop
11/25/2018,1000 W. Oakdale Ave.,Chicago,Il,1,1,1,41.93520800000,-87.65395000000,1.00000000000,range_interpolation
12/5/2018,1000 W. Armitage Ave.,Chicago,Il,1,1,1,41.91839200000,-87.65361800000,1.00000000000,rooftop
12/14/2018,1000 W. Dakin St.,Chicago,Il,1,1,1,41.95336000000,-87.65451600000,1.00000000000,range_interpolation
5/12/2018,1000 W. Dickens Ave.,Chicago,Il,1,1,1,41.91982100000,-87.65397000000,1.00000000000,rooftop
6/27/2018,1000 W. Hubbard St.,Chicago,Il,1,1,1,41.88988700000,-87.65226400000,1.00000000000,range_interpolation
3/7/2019,10500 S Claremont Ave,Chicago,Il,2,2,1,41.70260000000,-87.68062200000,1.00000000000,rooftop
11/9/2016,10500 S. Campbell Ave.,Chicago,Il,2,2,1,41.70257800000,-87.68435300000,1.00000000000,rooftop
12/17/2018,10500 S. Troy St.,Chicago,Il,2,2,1,41.70239800000,-87.70038900000,1.00000000000,rooftop
6/14/2016,10500 S. Vernon Ave.,Chicago,Il,4,3,2,41.70355200000,-87.61279600000,1.00000000000,rooftop
7/14/2017,10500 S. Central Park Ave.,Chicago,Il,3,6,7,41.70224600000,-87.71133800000,1.00000000000,rooftop
6/14/2016,10500 S. Maplewood Ave.,Chicago,Il,2,6,1,41.70255600000,-87.68556800000,1.00000000000,rooftop
12/1/2018,10500 S. St Louis Ave.,Chicago,Il,3,6,1,41.70231600000,-87.70892100000,1.00000000000,rooftop
1/29/2019,10500 S Saint Louis Ave,Chicago,Il,2,2,1,41.70230400000,-87.70885500000,0.80000000000,nearest_rooftop_match
2/27/2019,10500 S N Ave,Chicago,Il,4,4,1,41.97912800000,-87.80568900000,0.40000000000,street_center
9/4/2016,10500 S. Talman Ave.,Chicago,Il,3,3,3,41.70251500000,-87.68859600000,1.00000000000,rooftop
8/25/2016,10500 S. Springfield Ave.,Chicago,Il,1,1,1,41.70202600000,-87.71849900000,1.00000000000,rooftop
1/16/2017,10500 S. Whipple St.,Chicago,Il,2,2,1,41.70242600000,-87.69803200000,1.00000000000,rooftop
12/13/2018,10500 S. Green Bay Ave.,Chicago,Il,6,11,3,41.70446500000,-87.54167300000,1.00000000000,rooftop
10/18/2016,10500 S. Kedzie Ave.,Chicago,Il,6,3,2,41.70239700000,-87.70158500000,1.00000000000,rooftop
2/25/2016,10500 S. Indiana Ave.,Chicago,Il,2,1,1,41.70428100000,-87.52639900000,1.00000000000,rooftop
2/6/2019,10500 S Millard Ave,Chicago,Il,1,2,1,41.70222200000,-87.71257400000,1.00000000000,rooftop
11/18/2018,10500 S Maplewood Ave.,Chicago,Il,1,1,1,41.70255600000,-87.68556800000,1.00000000000,rooftop
7/29/2016,10500 S. Avers Ave.,Chicago,Il,9,2,2,41.70153600000,-87.71706900000,1.00000000000,range_interpolation
11/15/2018,10500 S. Lawndale Ave.,Chicago,Il,2,1,1,41.70218600000,-87.71342500000,1.00000000000,range_interpolation
8/10/2016,10500 S. Troy St.,Chicago,Il,5,3,3,41.70239800000,-87.70038900000,1.00000000000,rooftop
6/6/2018,10500 S. Michigan Ave.,Chicago,Il,1,1,1,41.70334600000,-87.62100200000,1.00000000000,rooftop
9/30/2016,10500 S. Hoyne Ave.,Chicago,Il,3,4,2,41.70268600000,-87.67461000000,1.00000000000,rooftop
11/26/2018,10500 S. Millard Ave.,Chicago,Il,2,6,1,41.70222200000,-87.71257400000,1.00000000000,rooftop
5/19/2016,10500 S. Vernon Ave.,Chicago,Il,3,3,2,41.70355200000,-87.61279600000,1.00000000000,rooftop
11/19/2016,10500 S. Claremont Ave.,Chicago,Il,3,3,2,41.70260000000,-87.68062200000,1.00000000000,rooftop
6/11/2017,10500 S. Walden Pkwy.,Chicago,Il,1,1,2,41.70265800000,-87.66985400000,1.00000000000,rooftop
3/5/2019,10500 S Campbell Ave,Chicago,Il,1,1,1,41.70257800000,-87.68435300000,1.00000000000,rooftop
4/16/2018,10500 S. Prairie Ave.,Chicago,Il,2,3,3,41.70348000000,-87.61767700000,1.00000000000,rooftop
3/25/2016,10500 S. Ave. J,Chicago,Il,3,2,2,41.70441000000,-87.53408000000,1.00000000000,range_interpolation
2/4/2016,10500 S. Ave. J *,Chicago,Il,4,1,1,41.70441000000,-87.53408000000,1.00000000000,range_interpolation
11/7/2018,10500 S. Avenue J,Chicago,Il,4,2,2,41.70441000000,-87.53408000000,1.00000000000,range_interpolation
7/3/2018,10500 S. Harding Ave.,Chicago,Il,3,5,2,41.70168700000,-87.71952100000,1.00000000000,range_interpolation
8/5/2016,10500 S. Normal Ave.,Chicago,Il,4,8,4,41.70323600000,-87.63577500000,1.00000000000,rooftop
11/27/2018,10500 S. Springfield Ave.,Chicago,Il,2,1,1,41.70202600000,-87.71849900000,1.00000000000,rooftop
7/19/2016,10500 S. Maplewood Ave.,Chicago,Il,1,1,1,41.70255600000,-87.68556800000,1.00000000000,rooftop
12/3/2018,1000 W. Lill Ave.,Chicago,Il,1,1,1,41.92795000000,-87.65370200000,1.00000000000,range_interpolation
3/25/2017,10500 S. Ave. N.,Chicago,Il,3,1,1,41.70442900000,-87.54011000000,1.00000000000,range_interpolation
6/8/2018,10500 S. Michigan Ave.,Chicago,Il,1,1,1,41.70334600000,-87.62100200000,1.00000000000,rooftop
1/22/2019,10500 S. Troy St.,Chicago,Il,10,5,1,41.70239800000,-87.70038900000,1.00000000000,rooftop
8/13/2018,10500 S. Claremont Ave.,Chicago,Il,3,4,2,41.70260000000,-87.68062200000,1.00000000000,rooftop
10/2/2016,10500 S. Sawyer Ave.,Chicago,Il,2,5,2,41.70238200000,-87.70278200000,1.00000000000,rooftop
2/21/2017,10500 S. Millard Ave.,Chicago,Il,2,2,1,41.70222200000,-87.71257400000,1.00000000000,rooftop
8/14/2018,10500 S. Campbell Ave.,Chicago,Il,2,2,5,41.70257800000,-87.68435300000,1.00000000000,rooftop
11/4/2018,10500 S. Campbell Ave.,Chicago,Il,1,4,1,41.70257800000,-87.68435300000,1.00000000000,rooftop
1/23/2019,10500 S. Leavitt St.,Chicago,Il,2,1,1,41.70265100000,-87.67666600000,1.00000000000,range_interpolation
8/17/2018,1000 N. Marshfield Ave.,Chicago,Il,1,1,1,41.89983700000,-87.66860200000,1.00000000000,range_interpolation
2/18/2019,10500 S Avenue F,Chicago,Il,4,5,2,41.70439900000,-87.53045100000,1.00000000000,range_interpolation
6/22/2016,10500 S. Talman Ave.,Chicago,Il,3,11,2,41.70251500000,-87.68859600000,1.00000000000,rooftop
1/7/2019,10500 S. Millard Ave.,Chicago,Il,1,2,1,41.70222200000,-87.71257400000,1.00000000000,rooftop
2/14/2019,10500 S. Spaulding Ave.,Chicago,Il,6,3,2,41.70235900000,-87.70407800000,1.00000000000,rooftop
12/14/2018,10500 S. Central Park Ave.,Chicago,Il,4,8,1,41.70224600000,-87.71133800000,1.00000000000,rooftop
11/14/2016,10500 S. Trumbull Ave.,Chicago,Il,2,2,1,41.70230600000,-87.70776500000,1.00000000000,rooftop
10/22/2017,10500 S. Christiana Ave.,Chicago,Il,4,15,4,41.70230900000,-87.70526800000,1.00000000000,rooftop
12/13/2017,10500 S. Christiana Ave.,Chicago,Il,0,0,0,41.70230900000,-87.70526800000,1.00000000000,rooftop
6/17/2018,10500 S. Sawyer Ave.,Chicago,Il,1,1,1,41.70238200000,-87.70278200000,1.00000000000,rooftop
5/21/2018,1000 N. Mozart St.,Chicago,Il,1,1,1,41.89940200000,-87.69839900000,1.00000000000,rooftop
3/12/2019,10500 S Ridgeway Ave,Chicago,Il,2,2,1,41.70216900000,-87.71500000000,1.00000000000,rooftop
2/11/2019,10500 S Millard Ave,Chicago,Il,2,4,7,41.70222200000,-87.71257400000,1.00000000000,rooftop
8/5/2016,10500 S. Trumbull Ave.,Chicago,Il,2,7,1,41.70230600000,-87.70776500000,1.00000000000,rooftop
6/14/2016,10500 S. Vernon Ave.,Chicago,Il,7,8,4,41.70355200000,-87.61279600000,1.00000000000,rooftop
11/19/2018,10500 S. Spaulding Ave.,Chicago,Il,1,1,1,41.70235900000,-87.70407800000,1.00000000000,rooftop
3/10/2019,10500 S Spaulding Ave,Chicago,Il,1,2,1,41.70235900000,-87.70407800000,1.00000000000,rooftop
2/4/2019,1000 W. Berwyn Ave.,Chicago,Il,1,1,1,41.97836200000,-87.65557700000,1.00000000000,range_interpolation
10/2/2016,10500 S. Ridgeway Ave.,Chicago,Il,3,3,1,41.70216900000,-87.71500000000,1.00000000000,rooftop
7/27/2017,10500 S. Walden Pkwy.,Chicago,Il,3,3,3,41.70265800000,-87.66985400000,1.00000000000,rooftop
12/3/2018,10500 S. Drake Ave.,Chicago,Il,2,2,4,41.70229800000,-87.71012900000,1.00000000000,rooftop
8/18/2018,1000 N Marshfield Ave.,Chicago,Il,1,1,1,41.89983700000,-87.66860200000,1.00000000000,range_interpolation
11/14/2018,1000 W. Berwyn Ave.,Chicago,Il,1,1,1,41.97836200000,-87.65557700000,1.00000000000,range_interpolation
9/21/2016,1000 N. Damen Ave.,Chicago,Il,1,1,1,41.89971100000,-87.67747900000,1.00000000000,rooftop
2/20/2018,1000 W. Columbia Ave.,Chicago,Il,1,1,1,42.00450700000,-87.65772200000,1.00000000000,range_interpolation
2/18/2019,1000 N Waller Ave,Chicago,Il,1,1,1,41.89859300000,-87.76831100000,1.00000000000,rooftop
6/21/2018,1000 N. Marshfield Ave.,Chicago,Il,1,1,1,41.89983700000,-87.66860200000,1.00000000000,range_interpolation
7/10/2018,1000 W. Albion Ave.,Chicago,Il,1,1,1,42.00245100000,-87.65731600000,1.00000000000,range_interpolation
7/10/2016,10600 S. Homan Ave.,Chicago,Il,3,3,2,41.70050200000,-87.70638700000,1.00000000000,rooftop
12/2/2018,10600 S Maplewood Ave.,Chicago,Il,2,6,1,41.70073100000,-87.68550800000,1.00000000000,rooftop
3/14/2019,10600 S Troy St,Chicago,Il,3,2,1,41.70058700000,-87.70032400000,1.00000000000,rooftop
3/9/2019,10600 S Christiana Ave,Chicago,Il,3,8,1,41.70041900000,-87.70527000000,1.00000000000,rooftop
7/22/2016,10600 S. Christiana Ave.,Chicago,Il,3,7,4,41.70041900000,-87.70527000000,1.00000000000,rooftop
9/29/2016,10600 S. St Louis Ave.,Chicago,Il,2,6,2,41.70047200000,-87.70882900000,1.00000000000,rooftop
9/29/2016,10600 S. Springfield Ave.,Chicago,Il,4,4,3,41.70029300000,-87.71859000000,1.00000000000,rooftop
6/19/2016,10600 S. Trumbull Ave.,Chicago,Il,1,1,1,41.70046200000,-87.70747000000,1.00000000000,rooftop
7/3/2018,10600 S. Bell Ave.,Chicago,Il,4,3,2,41.70079700000,-87.67816000000,1.00000000000,rooftop
12/6/2017,1000 E. 41st Pl.,Chicago,Il,1,1,1,41.81978400000,-87.60227900000,1.00000000000,rooftop
3/9/2019,1000 W Rosemont Ave,Chicago,Il,3,1,1,41.99627300000,-87.65558000000,1.00000000000,range_interpolation
6/29/2018,10600 S Avenue C,Chicago,Il,4,1,2,41.70254100000,-87.52696100000,1.00000000000,range_interpolation
3/4/2019,10600 S Albany Ave,Chicago,Il,3,3,1,41.70058300000,-87.69914100000,1.00000000000,rooftop
1/14/2019,10600 S Bell Ave,Chicago,Il,3,8,1,41.70079700000,-87.67816000000,1.00000000000,rooftop
6/14/2016,10600 S. California Ave.,Chicago,Il,4,4,1,41.70062700000,-87.69125600000,1.00000000000,range_interpolation
9/2/2016,10600 S. Fairfield Ave,Chicago,Il,3,5,3,41.70065900000,-87.69011500000,1.00000000000,rooftop
3/5/2019,10600 S Lafayette Ave,Chicago,Il,5,2,2,41.70161600000,-87.62490400000,1.00000000000,rooftop
11/24/2018,10600 S. Prospect Ave.,Chicago,Il,2,1,1,41.70099800000,-87.66233300000,1.00000000000,rooftop
3/10/2019,10600 S Claremont Ave,Chicago,Il,5,2,1,41.70075500000,-87.68056500000,1.00000000000,rooftop
4/20/2016,10600 S. Emerald Ave.,Chicago,Il,2,1,1,41.70133600000,-87.64180200000,1.00000000000,rooftop
2/29/2016,10600 S. Emerald Ave.*,Chicago,Il,2,1,1,41.70133600000,-87.64180200000,1.00000000000,rooftop
6/17/2016,10600 S. Church St.,Chicago,Il,8,8,8,41.70119600000,-87.66017900000,1.00000000000,range_interpolation
1/6/2019,10600 S. Spaulding Ave.,Chicago,Il,3,1,1,41.70042700000,-87.70408700000,1.00000000000,rooftop
3/8/2019,1000 W Berwyn Ave,Chicago,Il,1,1,1,41.97836200000,-87.65557700000,1.00000000000,range_interpolation
11/26/2018,10600 S. Talman Ave.,Chicago,Il,6,2,2,41.70067800000,-87.68853500000,1.00000000000,rooftop
3/11/2019,10600 S Campbell Ave,Chicago,Il,3,6,2,41.70072700000,-87.68429400000,1.00000000000,rooftop
2/4/2019,10600 S Central Park Ave,Chicago,Il,3,7,1,41.70040900000,-87.71131600000,1.00000000000,rooftop
9/7/2016,10600 S. Wood St.,Chicago,Il,3,3,3,41.70073700000,-87.66705700000,1.00000000000,range_interpolation
7/27/2016,10600 S. Oakley Ave.,Chicago,Il,12,10,3,41.70077600000,-87.67936100000,1.00000000000,rooftop
7/24/2016,10600 S. Troy St.,Chicago,Il,2,2,2,41.70058700000,-87.70032400000,1.00000000000,rooftop
6/30/2018,10600 S. Hale Ave.,Chicago,Il,1,1,1,41.70106600000,-87.66938900000,1.00000000000,range_interpolation
11/27/2018,10600 S. Homan Ave.,Chicago,Il,2,1,1,41.70050200000,-87.70638700000,1.00000000000,rooftop
5/15/2016,10600 S. Edbrooke Ave.,Chicago,Il,1,1,1,41.70159100000,-87.62000600000,1.00000000000,rooftop
10/4/2016,10600 S. Champlain Ave.,Chicago,Il,5,2,2,41.70178200000,-87.60741600000,1.00000000000,range_interpolation
4/29/2018,1000 W. Columbia Ave.,Chicago,Il,1,1,1,42.00450700000,-87.65772200000,1.00000000000,range_interpolation
7/24/2016,10600 S. Avers Ave.,Chicago,Il,2,3,3,41.69967900000,-87.71699900000,1.00000000000,range_interpolation
2/27/2019,10600 S Spaulding Ave,Chicago,Il,1,1,1,41.70042700000,-87.70408700000,1.00000000000,rooftop
11/25/2018,10600 S. Wood St.,Chicago,Il,4,5,2,41.70073700000,-87.66705700000,1.00000000000,range_interpolation
3/9/2019,10600 S Artesian Ave,Chicago,Il,1,1,1,41.70074100000,-87.68307900000,1.00000000000,rooftop
8/11/2016,10600 S. Bell Ave.,Chicago,Il,3,12,3,41.70079700000,-87.67816000000,1.00000000000,rooftop
2/20/2019,10600 S Lawndale Ave,Chicago,Il,5,9,1,41.70048700000,-87.71352100000,1.00000000000,range_interpolation
2/10/2019,10600 S Artesian Ave,Chicago,Il,3,5,1,41.70074100000,-87.68307900000,1.00000000000,rooftop
6/30/2018,10600 S. Trumbull Ave.,Chicago,Il,1,1,1,41.70046200000,-87.70747000000,1.00000000000,rooftop
11/6/2018,10600 S. Lawndale Ave.,Chicago,Il,2,4,1,41.70048700000,-87.71352100000,1.00000000000,range_interpolation
2/12/2019,10600 S Maplewood Ave,Chicago,Il,2,2,1,41.70073100000,-87.68550800000,1.00000000000,rooftop
10/5/2017,10600 S. Wood St.,Chicago,Il,6,3,3,41.70073700000,-87.66705700000,1.00000000000,range_interpolation
6/20/2018,10600 S. Longwood Dr.,Chicago,Il,6,4,4,41.70081900000,-87.67119600000,1.00000000000,range_interpolation
11/28/2016,1000 N. Wood St.,Chicago,Il,1,1,1,41.89975600000,-87.67263800000,1.00000000000,rooftop
2/23/2017,10600 S. Longwood Dr.,Chicago,Il,2,2,1,41.70081900000,-87.67119600000,1.00000000000,range_interpolation
10/30/2016,10700 S. Sacramento Ave.,Chicago,Il,2,1,1,41.69881200000,-87.69671900000,1.00000000000,rooftop
6/19/2018,10700 S. Central Park Ave.,Chicago,Il,4,1,1,41.69872000000,-87.71085000000,1.00000000000,range_interpolation
9/25/2018,10700 S. Sawyer Ave.,Chicago,Il,2,8,2,41.69870400000,-87.70229200000,1.00000000000,range_interpolation
3/13/2019,10700 S Ridgeway Ave,Chicago,Il,8,8,2,41.69852500000,-87.71486400000,1.00000000000,rooftop
7/24/2018,1000 W. 15th St.,Chicago,Il,1,1,1,41.86196100000,-87.65250900000,1.00000000000,rooftop
1/25/2017,10700 S. Washtenaw Ave.,Chicago,Il,1,1,1,41.69874100000,-87.68896800000,1.00000000000,rooftop
7/22/2016,10700 S. Talman Ave.,Chicago,Il,4,6,1,41.69887600000,-87.68754100000,1.00000000000,range_interpolation
10/2/2016,10700 S. Hamline Ave.,Chicago,Il,2,3,1,41.69850400000,-87.71609600000,1.00000000000,rooftop
3/7/2019,10700 S Ewing Ave,Chicago,Il,1,1,1,41.70080100000,-87.53565900000,1.00000000000,rooftop
2/2/2019,10700 S Washtenaw Ave,Chicago,Il,2,5,1,41.69874100000,-87.68896800000,1.00000000000,rooftop
3/14/2016,10700 S. Hoyne Ave.,Chicago,Il,1,1,1,41.69897200000,-87.67479200000,1.00000000000,rooftop
8/23/2018,10700 S. Millard Ave.,Chicago,Il,4,2,1,41.69800600000,-87.71203600000,1.00000000000,range_interpolation
2/16/2019,10700 S Morgan St,Chicago,Il,3,5,5,41.69942200000,-87.64782100000,1.00000000000,rooftop
2/17/2019,10700 S Washtenaw Ave,Chicago,Il,10,5,2,41.69874100000,-87.68896800000,1.00000000000,rooftop
12/2/2018,10700 S Avenue H,Chicago,Il,3,3,1,41.70079500000,-87.54008900000,1.00000000000,range_interpolation
8/24/2016,10700 S. Spaulding Ave.,Chicago,Il,7,15,16,41.69868600000,-87.70352100000,1.00000000000,range_interpolation
10/5/2016,10700 S. Spaulding Ave.,Chicago,Il,0,0,0,41.69868600000,-87.70352100000,1.00000000000,range_interpolation
9/13/2016,10700 S. Talman Ave,Chicago,Il,4,5,4,41.69887600000,-87.68754100000,1.00000000000,range_interpolation
12/1/2018,10700 S. Trumbull Ave.,Chicago,Il,2,6,1,41.69862400000,-87.70723400000,1.00000000000,range_interpolation
8/6/2018,1000 W. Thorndale Ave.,Chicago,Il,1,1,1,41.98995500000,-87.65538500000,1.00000000000,range_interpolation
11/30/2018,10700 S. Hamlin Ave.,Chicago,Il,4,3,4,41.69850400000,-87.71609600000,1.00000000000,rooftop
1/3/2017,10700 Ave. O,Chicago,Il,6,16,2,41.88531000000,-87.62213000000,1.00000000000,place
2/25/2017,10700 Ave. O,Chicago,Il,0,0,0,41.88531000000,-87.62213000000,1.00000000000,place
7/10/2016,10700 S. Trumbull Ave.,Chicago,Il,4,3,3,41.69862400000,-87.70723400000,1.00000000000,range_interpolation
11/2/2018,10700 S California Ave.,Chicago,Il,5,4,7,41.69883500000,-87.69119900000,1.00000000000,range_interpolation
3/21/2019,10700 S Avenue L Ave,Chicago,Il,3,9,1,41.70077500000,-87.53649000000,1.00000000000,range_interpolation
1/16/2017,10700 S. Troy St.,Chicago,Il,6,2,2,41.69874800000,-87.69990800000,1.00000000000,range_interpolation
2/11/2019,10700 S Albany Ave,Chicago,Il,2,2,1,41.69877600000,-87.69907300000,1.00000000000,rooftop
6/22/2017,10700 S. Champlain Ave.,Chicago,Il,8,10,10,41.69994700000,-87.60736000000,1.00000000000,range_interpolation
9/12/2017,10700 S. Champlain Ave.,Chicago,Il,0,0,0,41.69994700000,-87.60736000000,1.00000000000,range_interpolation
2/5/2019,10700 S Hamlin Ave,Chicago,Il,2,5,9,41.69850400000,-87.71609600000,1.00000000000,rooftop
8/3/2017,10700 S. Homan Ave.,Chicago,Il,5,4,4,41.69864600000,-87.70601200000,1.00000000000,range_interpolation
2/5/2019,10700 S Springfield Ave,Chicago,Il,3,7,1,41.69845800000,-87.71817100000,1.00000000000,range_interpolation
1/28/2019,10700 S Morgan St,Chicago,Il,4,9,2,41.69942200000,-87.64782100000,1.00000000000,rooftop
2/12/2019,10700 S C Ave,Chicago,Il,2,1,1,41.88531000000,-87.62213000000,0.33000000000,place
1/13/2019,10700 S Homan Ave,Chicago,Il,1,11,1,41.69864600000,-87.70601200000,1.00000000000,range_interpolation
11/14/2018,10700 S. Millard Ave.,Chicago,Il,2,3,1,41.69800600000,-87.71203600000,1.00000000000,range_interpolation
6/9/2018,1000 N. Hermitage Ave.,Chicago,Il,1,1,1,41.89980000000,-87.67105900000,1.00000000000,range_interpolation
12/5/2018,10800 S. Campbell Ave.,Chicago,Il,2,1,1,41.69710100000,-87.68417800000,1.00000000000,rooftop
12/23/2018,10800 S Ridgeway Ave,Chicago,Il,5,6,2,41.69669700000,-87.71479500000,1.00000000000,rooftop
6/21/2016,10800 S. Ridgeway Ave.,Chicago,Il,10,10,8,41.69669700000,-87.71479500000,1.00000000000,rooftop
8/17/2016,1000 W. 108th St.,Chicago,Il,3,3,2,41.69760800000,-87.64741600000,1.00000000000,range_interpolation
4/11/2017,10800 S. Troy St.,Chicago,Il,1,2,2,41.69691600000,-87.70018300000,1.00000000000,rooftop
7/31/2016,10800 S. Trumbull Ave.,Chicago,Il,5,6,3,41.69679600000,-87.70742900000,1.00000000000,rooftop
5/15/2018,10800 S. Lowe Ave.,Chicago,Il,3,6,1,41.69759000000,-87.63951900000,1.00000000000,rooftop
6/29/2016,10800 S. Drake Ave.,Chicago,Il,3,11,4,41.69678600000,-87.70993000000,1.00000000000,rooftop
8/13/2016,10800 S. Washtenaw Ave.,Chicago,Il,1,5,2,41.69704500000,-87.68908600000,1.00000000000,rooftop
11/10/2016,10800 S. Artesian Ave.,Chicago,Il,3,3,2,41.69710700000,-87.68296300000,1.00000000000,rooftop
11/5/2018,10800 S. Whipple St.,Chicago,Il,3,7,8,41.69694700000,-87.69782900000,1.00000000000,rooftop
12/3/2018,10800 S Maplewood Ave,Chicago,Il,2,2,1,41.69707300000,-87.68538900000,1.00000000000,rooftop
2/14/2019,10800 S Millard Ave,Chicago,Il,1,3,1,41.69634200000,-87.71189100000,1.00000000000,range_interpolation
10/17/2017,10800 S. Maplewood Ave.,Chicago,Il,1,1,1,41.69707300000,-87.68538900000,1.00000000000,rooftop
3/8/2019,10800 S Maplewood Ave,Chicago,Il,3,8,1,41.69707300000,-87.68538900000,1.00000000000,rooftop
9/19/2017,10800 S Avenue H,Chicago,Il,4,2,2,41.69898200000,-87.54008600000,1.00000000000,range_interpolation
8/15/2016,10800 S. Trumbull Ave.,Chicago,Il,2,5,3,41.69679600000,-87.70742900000,1.00000000000,rooftop
1/15/2019,10800 S Saint Louis Ave,Chicago,Il,4,3,1,41.69677800000,-87.70872300000,1.00000000000,rooftop
1/16/2019,10800 S. Longwood Dr.,Chicago,Il,5,3,2,41.69726100000,-87.67183600000,1.00000000000,rooftop
2/26/2018,10800 S. Rockwell St.,Chicago,Il,2,1,1,41.69707700000,-87.68666100000,1.00000000000,rooftop
7/27/2016,10800 S. Talman Ave.,Chicago,Il,5,4,3,41.69705900000,-87.68784200000,1.00000000000,rooftop
8/1/2018,10800 S. Hamlin Ave.,Chicago,Il,1,3,1,41.69674700000,-87.71603000000,1.00000000000,rooftop
11/19/2018,10800 S. Maplewood Ave.,Chicago,Il,1,1,1,41.69707300000,-87.68538900000,1.00000000000,rooftop
11/10/2016,10800 S. St Louis Ave.,Chicago,Il,2,4,2,41.69677600000,-87.70875900000,1.00000000000,rooftop
1/23/2019,10800 S Fairfield Ave,Chicago,Il,4,2,2,41.69701500000,-87.69031500000,1.00000000000,rooftop
12/30/2018,10800 S Washtenaw Ave.,Chicago,Il,4,3,1,41.69704500000,-87.68908600000,1.00000000000,rooftop
8/4/2016,10800 S. Washtenaw Ave.,Chicago,Il,4,4,3,41.69704500000,-87.68908600000,1.00000000000,rooftop
3/12/2019,10800 S. Drake Ave.,Chicago,Il,1,1,1,41.69678600000,-87.70993000000,1.00000000000,rooftop
10/22/2017,10800 S. Lawndale Ave.,Chicago,Il,5,5,2,41.69671800000,-87.71357700000,1.00000000000,rooftop
6/3/2016,10800 S. Lowe Ave.,Chicago,Il,7,2,2,41.69759000000,-87.63951900000,1.00000000000,rooftop
2/24/2019,10800 S Bell Ave,Chicago,Il,3,11,1,41.69654400000,-87.67648800000,1.00000000000,range_interpolation
5/30/2018,10800 S. Troy St.,Chicago,Il,1,1,1,41.69691600000,-87.70018300000,1.00000000000,rooftop
11/26/2018,10800 S. Washtenaw Ave.,Chicago,Il,3,2,1,41.69704500000,-87.68908600000,1.00000000000,rooftop
6/28/2016,10800 S. Hoyne Ave.,Chicago,Il,4,6,5,41.69725000000,-87.67417200000,1.00000000000,range_interpolation
6/7/2016,10900 S. Normal Ave.,Chicago,Il,1,1,1,41.69594700000,-87.63560200000,1.00000000000,rooftop
7/22/2016,10900 S. Talman Ave.,Chicago,Il,12,4,3,41.69522000000,-87.68779500000,1.00000000000,rooftop
11/15/2016,10900 S. Beverly Ave.,Chicago,Il,2,1,1,41.69586600000,-87.65035300000,1.00000000000,rooftop
11/28/2018,10900 S. Washtenaw Ave.,Chicago,Il,8,12,3,41.69521300000,-87.68901100000,1.00000000000,rooftop
7/28/2016,10900 S. Drake Ave.,Chicago,Il,2,2,1,41.69494600000,-87.70985900000,1.00000000000,rooftop
5/22/2018,10900 S. Albany Ave.,Chicago,Il,3,2,2,41.69512700000,-87.69887500000,1.00000000000,rooftop
12/5/2018,10900 S. Homan Ave.,Chicago,Il,2,1,1,41.69500500000,-87.70624500000,1.00000000000,rooftop
3/11/2019,10900 S Parnell Ave,Chicago,Il,2,2,1,41.69592900000,-87.63679800000,1.00000000000,rooftop
10/6/2016,10900 S. Longwood Dr.,Chicago,Il,2,2,2,41.69515200000,-87.67344800000,1.00000000000,rooftop
1/7/2019,10900 S Washtenaw Ave,Chicago,Il,4,6,1,41.69521300000,-87.68901100000,1.00000000000,rooftop
2/13/2019,10900 S Hoyne Ave,Chicago,Il,2,2,1,41.69537000000,-87.67416000000,1.00000000000,range_interpolation
7/24/2016,10900 S. Hamlin Ave.,Chicago,Il,1,1,1,41.69481700000,-87.71558900000,1.00000000000,range_interpolation
10/30/2018,10900 S. Bell Ave.,Chicago,Il,2,2,5,41.69533200000,-87.67617700000,1.00000000000,range_interpolation
5/10/2017,10900 S. Millard Ave.,Chicago,Il,1,2,1,41.69490700000,-87.71233400000,1.00000000000,rooftop
3/12/2019,10900 S Avenue D St,Chicago,Il,3,1,1,41.69664600000,-87.52837200000,1.00000000000,range_interpolation
1/5/2019,10900 S. Drake Ave.,Chicago,Il,3,6,2,41.69494600000,-87.70985900000,1.00000000000,rooftop
9/18/2016,10900 S. Lawndale Ave.,Chicago,Il,6,13,14,41.69489700000,-87.71353700000,1.00000000000,rooftop
,10900 S. Lawndale Ave.,Chicago,Il,0,0,0,41.69489700000,-87.71353700000,1.00000000000,rooftop
9/15/2016,10900 S. Hoyne Ave.,Chicago,Il,5,4,4,41.69537000000,-87.67416000000,1.00000000000,range_interpolation
5/3/2018,10900 S. Hoyne Ave.,Chicago,Il,5,8,3,41.69537000000,-87.67416000000,1.00000000000,range_interpolation
2/7/2019,10900 S. Washtenaw Ave.,Chicago,Il,8,7,1,41.69521300000,-87.68901100000,1.00000000000,rooftop
3/10/2019,10900 S Trumbull Ave,Chicago,Il,3,1,1,41.69499100000,-87.70745000000,1.00000000000,rooftop
4/16/2017,10900 S. Lawndale Ave.,Chicago,Il,2,1,1,41.69489700000,-87.71353700000,1.00000000000,rooftop
3/14/2017,10900 S. Millard Ave.,Chicago,Il,3,4,1,41.69490700000,-87.71233400000,1.00000000000,rooftop
8/24/2016,10900 S. Fairfield Ave.,Chicago,Il,1,2,1,41.69520600000,-87.69025600000,1.00000000000,rooftop
3/9/2019,10900 S Springfield Ave,Chicago,Il,2,6,1,41.69475500000,-87.71838500000,1.00000000000,rooftop
3/13/2019,10900 S Central Park Ave,Chicago,Il,3,10,1,41.69493600000,-87.71107900000,1.00000000000,rooftop
3/9/2019,10900 S Campbell Ave,Chicago,Il,2,1,1,41.69521800000,-87.68394200000,1.00000000000,rooftop
8/21/2018,10900 S. Lawndale Ave.,Chicago,Il,3,10,3,41.69489700000,-87.71353700000,1.00000000000,rooftop
2/3/2019,10900 S Artesian Ave,Chicago,Il,4,9,2,41.69528200000,-87.68290400000,1.00000000000,rooftop
7/23/2016,10900 S. Lawndale Ave.,Chicago,Il,2,6,2,41.69489700000,-87.71353700000,1.00000000000,rooftop
3/12/2019,10900 S Central Park Ave,Chicago,Il,3,5,2,41.69493600000,-87.71107900000,1.00000000000,rooftop
12/1/2018,10900 S. Hoyne Ave.,Chicago,Il,1,1,1,41.69537000000,-87.67416000000,1.00000000000,range_interpolation
7/28/2016,10900 S. Springfield Ave.,Chicago,Il,2,1,1,41.69475500000,-87.71838500000,1.00000000000,rooftop
2/6/2019,10900 S Morgan St,Chicago,Il,3,6,1,41.69578000000,-87.64770700000,1.00000000000,rooftop
3/11/2019,10900 S Fairfield Ave,Chicago,Il,2,5,1,41.69520600000,-87.69025600000,1.00000000000,rooftop
7/6/2016,10900 S. Troy St.,Chicago,Il,12,5,9,41.69509300000,-87.70008900000,1.00000000000,rooftop
12/12/2018,10900 S. Peoria St.,Chicago,Il,3,7,2,41.69581900000,-87.64529200000,1.00000000000,rooftop
11/11/2018,10900 S. Millard Ave.,Chicago,Il,2,1,1,41.69490700000,-87.71233400000,1.00000000000,rooftop
11/8/2017,10900 S Avenue H,Chicago,Il,2,1,1,41.69716300000,-87.54008100000,1.00000000000,range_interpolation
8/3/2016,10900 S. Green St.,Chicago,Il,3,2,1,41.69584200000,-87.64406100000,1.00000000000,rooftop
5/7/2017,10900 S. Hamlin Ave.,Chicago,Il,2,1,1,41.69481700000,-87.71558900000,1.00000000000,range_interpolation
9/3/2018,1100 N. Dearborn St.,Chicago,Il,1,1,1,41.90208000000,-87.63036000000,1.00000000000,rooftop
8/20/2018,1100 W Cornelia Ave.,Chicago,Il,1,1,1,41.94578300000,-87.65721500000,1.00000000000,rooftop
11/19/2018,1100 W. Columbia Ave.,Chicago,Il,1,1,1,42.00492200000,-87.65860600000,1.00000000000,rooftop
2/18/2018,11000 S. Central Park Ave.,Chicago,Il,2,1,1,41.69310000000,-87.71101100000,1.00000000000,rooftop
7/31/2016,11000 S. Drake Ave.,Chicago,Il,1,1,1,41.69311800000,-87.70979100000,1.00000000000,rooftop
12/19/2018,11000 S. Trumbull Ave.,Chicago,Il,2,3,1,41.69314100000,-87.70738300000,1.00000000000,rooftop
8/12/2018,11000 S Springfield Ave.,Chicago,Il,2,6,2,41.69295400000,-87.71831700000,1.00000000000,rooftop
1/7/2019,11000 S Central Park Ave,Chicago,Il,2,9,6,41.69310000000,-87.71101100000,1.00000000000,rooftop
7/10/2016,11000 S. Esmond St.,Chicago,Il,2,4,1,41.69339100000,-87.66729600000,1.00000000000,range_interpolation
4/28/2018,11000 S. Hamlin Ave.,Chicago,Il,2,1,1,41.69300100000,-87.71552600000,1.00000000000,range_interpolation
8/2/2018,1100 N. Crosby St.,Chicago,Il,1,1,1,41.90155000000,-87.64476800000,1.00000000000,range_interpolation
8/9/2018,1100 N. Leavitt St.,Chicago,Il,8,4,4,41.90143200000,-87.68209200000,1.00000000000,range_interpolation
5/23/2018,1100 W Pratt Blvd,Chicago,Il,1,1,1,42.00593700000,-87.65816900000,1.00000000000,rooftop
1/20/2017,1100 W. Armitage Ave.,Chicago,Il,1,1,1,41.91792000000,-87.65579500000,1.00000000000,range_interpolation
7/10/2016,11000 S. Esmond St.,Chicago,Il,3,2,2,41.69339100000,-87.66729600000,1.00000000000,range_interpolation
11/19/2016,11000 S. State St.,Chicago,Il,1,1,1,41.69428200000,-87.62350200000,1.00000000000,rooftop
6/22/2017,11000 S. Millard Ave.,Chicago,Il,3,5,2,41.69309500000,-87.71226700000,1.00000000000,rooftop
3/15/2019,11000 S Saint Louis Ave,Chicago,Il,1,1,1,41.69306400000,-87.70850800000,1.00000000000,rooftop
2/13/2019,11000 S F Ave,Chicago,Il,3,6,1,41.88531000000,-87.62213000000,0.33000000000,place
8/16/2016,11000 S. Central Park Ave.,Chicago,Il,4,15,3,41.69310000000,-87.71101100000,1.00000000000,rooftop
10/5/2016,11000 S. Central Park Ave.,Chicago,Il,0,0,0,41.69310000000,-87.71101100000,1.00000000000,rooftop
8/3/2016,11000 S. St Louis Ave.,Chicago,Il,6,4,4,41.69312600000,-87.70823700000,1.00000000000,range_interpolation
11/17/2018,11000 S Trumbull Ave.,Chicago,Il,2,2,1,41.69314100000,-87.70738300000,1.00000000000,rooftop
3/10/2019,11000 S Fairfield Ave,Chicago,Il,2,4,1,41.69337200000,-87.68982100000,1.00000000000,range_interpolation
7/15/2016,11000 S. Albany Ave.,Chicago,Il,3,11,3,41.69341200000,-87.69881300000,1.00000000000,rooftop
8/8/2018,1100 W Fry St.,Chicago,Il,1,1,1,41.89756900000,-87.65543100000,1.00000000000,rooftop
8/19/2018,11000 S. Harding Ave.,Chicago,Il,6,2,2,41.69292500000,-87.71920200000,1.00000000000,range_interpolation
10/19/2016,11000 S. Central Park Ave.,Chicago,Il,5,3,2,41.69310000000,-87.71101100000,1.00000000000,rooftop
7/10/2016,11000 S. Esmond St.,Chicago,Il,2,3,2,41.69339100000,-87.66729600000,1.00000000000,range_interpolation
7/20/2016,11000 S. Spaulding Ave.,Chicago,Il,1,1,1,41.69320600000,-87.70342900000,1.00000000000,range_interpolation
9/19/2016,11000 S. Albany Ave.,Chicago,Il,1,1,1,41.69341200000,-87.69881300000,1.00000000000,rooftop
3/8/2019,11000 S Campbell Ave,Chicago,Il,4,11,1,41.69345400000,-87.68370600000,1.00000000000,range_interpolation
4/5/2018,11000 S. Parnell Ave.,Chicago,Il,2,2,1,41.69411000000,-87.63674200000,1.00000000000,rooftop
11/24/2018,11000 S. Trumbull Ave.,Chicago,Il,3,8,2,41.69314100000,-87.70738300000,1.00000000000,rooftop
7/14/2018,1100 W. Montana St.,Chicago,Il,2,1,1,41.92650500000,-87.65641700000,1.00000000000,rooftop
2/20/2019,1100 W. Webster Ave.,Chicago,Il,1,1,1,41.92196500000,-87.65609600000,1.00000000000,rooftop
4/24/2017,11000 S. Central Park Ave.,Chicago,Il,2,4,2,41.69310000000,-87.71101100000,1.00000000000,rooftop
6/7/2016,11000 S. Ave. G,Chicago,Il,3,3,3,41.69530400000,-87.53166200000,1.00000000000,range_interpolation
6/28/2016,11000 S. Washtenaw Ave.,Chicago,Il,2,4,2,41.69340200000,-87.68896500000,1.00000000000,rooftop
5/23/2016,11000 S. Millard Ave.,Chicago,Il,2,1,3,41.69309500000,-87.71226700000,1.00000000000,rooftop
2/13/2019,1100 N Long Ave,Chicago,Il,1,1,2,41.90051600000,-87.76083100000,1.00000000000,range_interpolation
7/15/2018,1100 W. 16th St.,Chicago,Il,1,1,1,41.85967000000,-87.65284200000,1.00000000000,range_interpolation
2/2/2019,11000 N Green Bay Ave,Chicago,Il,3,7,1,41.69536800000,-87.54168600000,0.90000000000,rooftop
11/6/2016,11000 S. Ave. O,Chicago,Il,1,3,4,41.69534300000,-87.54009900000,1.00000000000,range_interpolation
1/17/2019,1100 E 100th Pl,Chicago,Il,1,1,1,41.71170900000,-87.59707600000,1.00000000000,rooftop
2/18/2019,1100 W. 112th St.,Chicago,Il,2,4,1,41.69071700000,-87.64979600000,1.00000000000,rooftop
2/12/2016,1100 W. Wellington Ave.*,Chicago,Il,2,1,1,41.93652000000,-87.65659400000,1.00000000000,rooftop
4/7/2016,1100 W. Wellington Ave.,Chicago,Il,3,1,1,41.93652000000,-87.65659400000,1.00000000000,rooftop
9/15/2016,1100 W. 111th St.,Chicago,Il,2,4,2,41.69253400000,-87.64985600000,1.00000000000,rooftop
5/18/2018,1100 E. 52nd St.,Chicago,Il,1,1,1,41.80103900000,-87.59977200000,1.00000000000,range_interpolation
2/4/2019,1100 W 112th Pl,Chicago,Il,5,3,1,41.68927800000,-87.64958300000,1.00000000000,range_interpolation
2/4/2019,1100 W 71st St,Chicago,Il,4,2,2,41.76494100000,-87.65168800000,1.00000000000,range_interpolation
8/12/2018,1100 W. Webster Ave.,Chicago,Il,4,3,2,41.92196500000,-87.65609600000,1.00000000000,rooftop
7/25/2016,100 E. Chestnut St.,Chicago,Il,1,1,1,41.89856800000,-87.62561400000,1.00000000000,rooftop
12/30/2016,100 E. Chestnut St.,Chicago,Il,1,1,1,41.89856800000,-87.62561400000,1.00000000000,rooftop
11/3/2018,100 E. Chestnut St.,Chicago,Il,1,1,1,41.89856800000,-87.62561400000,1.00000000000,rooftop
9/4/2018,100 S. Morgan St.,Chicago,Il,1,1,1,41.88019900000,-87.65236200000,1.00000000000,rooftop
5/9/2017,100 S. Morgan St.,Chicago,Il,1,1,1,41.88019900000,-87.65236200000,1.00000000000,rooftop
10/25/2018,100 W. Illinois St.,Chicago,Il,1,1,1,41.89067300000,-87.63110600000,1.00000000000,range_interpolation
8/26/2018,1100 N. Lake Shore Dr.,Chicago,Il,1,1,1,41.90268100000,-87.62515900000,1.00000000000,rooftop
8/21/2017,1100 N. Paulina St.,Chicago,Il,1,1,1,41.90233100000,-87.67024400000,1.00000000000,rooftop
9/20/2018,1100 W. Cornelia Ave.,Chicago,Il,1,1,1,41.94578300000,-87.65721500000,1.00000000000,rooftop
8/12/2018,1100 W. Wellington Ave.,Chicago,Il,2,1,1,41.93652000000,-87.65659400000,1.00000000000,rooftop
11/24/2018,11100 S Avenue G,Chicago,Il,1,1,1,41.69349700000,-87.53166300000,1.00000000000,range_interpolation
8/16/2018,11100 S. Avenue H Ave.,Chicago,Il,2,5,6,41.69350000000,-87.53287000000,1.00000000000,range_interpolation
11/9/2016,11100 S. Washtenaw Ave.,Chicago,Il,2,2,2,41.69155800000,-87.68890400000,1.00000000000,rooftop
1/7/2019,1100 W. 102nd St.,Chicago,Il,1,1,1,41.70895600000,-87.65038600000,1.00000000000,rooftop
12/8/2018,1100 W. Montana St.,Chicago,Il,1,1,1,41.92650500000,-87.65641700000,1.00000000000,rooftop
5/25/2018,11100 S. Emerald Ave.,Chicago,Il,2,1,1,41.69222900000,-87.64148700000,1.00000000000,rooftop
3/4/2019,11100 S Sacramento Ave,Chicago,Il,2,1,1,41.69147100000,-87.69615800000,1.00000000000,range_interpolation
7/22/2016,11100 S. Hoyne Ave.,Chicago,Il,7,16,16,41.69174100000,-87.67402400000,1.00000000000,range_interpolation
12/2/2016,11100 S. Hoyne Ave.,Chicago,Il,0,0,0,41.69174100000,-87.67402400000,1.00000000000,range_interpolation
7/1/2018,11100 S. Bell Ave.,Chicago,Il,3,4,4,41.69153900000,-87.67804100000,1.00000000000,rooftop
8/16/2016,11100 S. Albany Ave.,Chicago,Il,2,2,2,41.69144700000,-87.69839200000,1.00000000000,range_interpolation
2/23/2019,11100 S Kedzie Ave,Chicago,Il,2,3,1,41.69143400000,-87.70117700000,1.00000000000,rooftop
3/1/2019,11100 S Maplewood Ave,Chicago,Il,3,5,1,41.69160500000,-87.68486300000,1.00000000000,range_interpolation
3/13/2019,11100 S Campbell Ave,Chicago,Il,1,1,1,41.69161900000,-87.68364700000,1.00000000000,range_interpolation
12/20/2018,11100 S Spaulding Ave,Chicago,Il,1,1,1,41.69138000000,-87.70332200000,1.00000000000,range_interpolation
1/17/2017,11100 S. Campbell Ave.,Chicago,Il,2,1,1,41.69161900000,-87.68364700000,1.00000000000,range_interpolation
8/14/2016,11100 S. Christiana Ave.,Chicago,Il,1,1,1,41.69129900000,-87.70476600000,1.00000000000,rooftop
2/21/2019,11100 S Avenue M,Chicago,Il,6,2,1,41.69351400000,-87.53769500000,1.00000000000,range_interpolation
12/22/2018,11100 S. Christiana Ave.,Chicago,Il,3,9,2,41.69129900000,-87.70476600000,1.00000000000,rooftop
12/19/2018,11100 S. Albany Ave.,Chicago,Il,5,7,1,41.69144700000,-87.69839200000,1.00000000000,range_interpolation
6/19/2018,1100 W. Columbia Ave.,Chicago,Il,1,1,1,42.00492200000,-87.65860600000,1.00000000000,rooftop
3/11/2019,11100 S Avenue J Ave,Chicago,Il,4,12,2,41.69350500000,-87.53407500000,1.00000000000,range_interpolation
3/10/2019,11100 S Albany Ave,Chicago,Il,2,3,1,41.69144700000,-87.69839200000,1.00000000000,range_interpolation
9/3/2016,11100 S. Drake Ave.,Chicago,Il,4,15,4,41.69128300000,-87.70936700000,1.00000000000,range_interpolation
11/5/2016,11100 S. Drake Ave.,Chicago,Il,0,0,0,41.69128300000,-87.70936700000,1.00000000000,range_interpolation
2/14/2019,11100 S Christiana Ave,Chicago,Il,1,1,1,41.69129900000,-87.70476600000,1.00000000000,rooftop
8/6/2018,11100 S. Fairfield Ave.,Chicago,Il,2,3,2,41.69154900000,-87.68976000000,1.00000000000,range_interpolation
1/14/2019,11100 S. Fairfield Ave.,Chicago,Il,3,4,5,41.69154900000,-87.68976000000,1.00000000000,range_interpolation
12/13/2018,1100 S. Plymoiuth Ct.,Chicago,Il,2,1,1,41.86887500000,-87.62870500000,1.00000000000,range_interpolation
4/28/2016,1100 W. Lunt Ave.,Chicago,Il,1,1,1,42.00906400000,-87.66022500000,1.00000000000,range_interpolation
7/29/2018,1100 W. George St.,Chicago,Il,1,1,1,41.93467800000,-87.65663700000,1.00000000000,rooftop
5/7/2017,11100 S. Sacramento Ave.,Chicago,Il,1,1,1,41.69147100000,-87.69615800000,1.00000000000,range_interpolation
8/13/2018,11100 S Bell Ave.,Chicago,Il,1,1,1,41.69153900000,-87.67804100000,1.00000000000,rooftop
7/11/2018,11100 S. Sawyer Ave.,Chicago,Il,2,2,2,41.69140000000,-87.70207200000,1.00000000000,range_interpolation
5/16/2017,1100 E. 48th St.,Chicago,Il,1,2,6,41.80803300000,-87.59893700000,1.00000000000,rooftop
7/12/2018,1100 W. Loyola Ave.,Chicago,Il,2,1,1,42.00184900000,-87.65880900000,1.00000000000,rooftop
6/7/2018,1100 N. Spaulding Ave.,Chicago,Il,3,3,2,41.90111200000,-87.70975900000,1.00000000000,rooftop
6/14/2016,1100 W. 25th St.,Chicago,Il,7,13,3,41.84682800000,-87.65494300000,1.00000000000,range_interpolation
11/13/2018,1100 W. Lunt Ave.,Chicago,Il,1,1,1,42.00906400000,-87.66022500000,1.00000000000,range_interpolation
2/21/2017,1100 W. Monroe St.,Chicago,Il,1,1,1,41.88062700000,-87.65488200000,1.00000000000,rooftop
9/3/2018,1100 W. Patterson Ave.,Chicago,Il,1,1,1,41.94818200000,-87.65742300000,1.00000000000,range_interpolation
7/18/2018,1100 W. George St.,Chicago,Il,1,1,1,41.93467800000,-87.65663700000,1.00000000000,rooftop
8/23/2018,1100 W. Oakdale Ave.,Chicago,Il,6,3,3,41.93558000000,-87.65658200000,1.00000000000,rooftop
1/5/2019,1100 N. La Salle Dr.,Chicago,Il,1,1,1,41.90206300000,-87.63324900000,1.00000000000,rooftop
3/8/2019,11200 S Albany Ave,Chicago,Il,3,6,1,41.68957600000,-87.69867300000,1.00000000000,rooftop
11/1/2016,11200 S. Albany Ave.,Chicago,Il,1,1,1,41.68957600000,-87.69867300000,1.00000000000,rooftop
3/10/2019,11200 S. St Louis Ave.,Chicago,Il,3,2,1,41.68920700000,-87.70820800000,1.00000000000,range_interpolation
8/29/2016,11200 S. Artesian Ave.,Chicago,Il,2,2,2,41.68965000000,-87.68237000000,1.00000000000,range_interpolation
2/17/2016,1100 W. George St.*,Chicago,Il,206,7,6,41.93467800000,-87.65663700000,1.00000000000,rooftop
3/16/2016,1100 W. George St.,Chicago,Il,0,0,0,41.93467800000,-87.65663700000,1.00000000000,rooftop
8/5/2018,1100 W. Patterson Ave.,Chicago,Il,2,3,2,41.94818200000,-87.65742300000,1.00000000000,range_interpolation
7/6/2018,1100 W. Schubert Ave. Unit 2,Chicago,Il,1,1,1,41.93061500000,-87.65620100000,1.00000000000,range_interpolation
2/26/2019,11200 S Saint Louis Ave,Chicago,Il,4,4,1,41.68941000000,-87.70834300000,1.00000000000,rooftop
2/25/2019,11200 S Maplewood Ave,Chicago,Il,5,1,1,41.68963900000,-87.68515500000,1.00000000000,rooftop
6/11/2018,11200 S. Spaulding Ave.,Chicago,Il,4,19,3,41.68946700000,-87.70333600000,1.00000000000,range_interpolation
7/20/2018,11200 S. Spaulding Ave.,Chicago,Il,0,0,0,41.68946700000,-87.70333600000,1.00000000000,range_interpolation
1/19/2017,11200 S. Sacramento Ave.,Chicago,Il,3,6,6,41.68965100000,-87.69636000000,1.00000000000,rooftop
7/13/2018,11200 S Drake Ave,Chicago,Il,7,6,6,41.68948000000,-87.70964400000,1.00000000000,rooftop
11/5/2018,1100 E. 91st St.,Chicago,Il,4,3,2,41.72971900000,-87.59720800000,1.00000000000,rooftop
1/23/2017,1100 N. Dearborn St.,Chicago,Il,1,1,1,41.90208000000,-87.63036000000,1.00000000000,rooftop
1/28/2019,1100 W Fry St,Chicago,Il,1,1,1,41.89756900000,-87.65543100000,1.00000000000,rooftop
9/5/2016,1100 W. Hubbard St.,Chicago,Il,1,1,1,41.88986500000,-87.65459800000,1.00000000000,range_interpolation
2/5/2016,1100 W. Lunt Ave.*,Chicago,Il,17,1,1,42.00906400000,-87.66022500000,1.00000000000,range_interpolation
3/26/2016,1100 W. Lunt Ave.,Chicago,Il,0,0,0,42.00906400000,-87.66022500000,1.00000000000,range_interpolation
2/24/2019,11200 S Albany Ave,Chicago,Il,4,10,1,41.68957600000,-87.69867300000,1.00000000000,rooftop
9/20/2016,11200 S. Albany Ave.,Chicago,Il,2,7,1,41.68957600000,-87.69867300000,1.00000000000,rooftop
2/11/2019,11200 S. Artesian Ave.,Chicago,Il,2,1,1,41.68965000000,-87.68237000000,1.00000000000,range_interpolation
9/27/2016,11200 S. Champlain Ave.,Chicago,Il,2,2,1,41.69060800000,-87.60715900000,1.00000000000,range_interpolation
2/27/2019,11200 S Bell Ave,Chicago,Il,5,5,9,41.68984500000,-87.67748700000,1.00000000000,rooftop
8/17/2016,11200 S. Sacramento Ave.,Chicago,Il,3,1,1,41.68965100000,-87.69636000000,1.00000000000,rooftop
5/22/2016,11200 S. Drake Ave.,Chicago,Il,4,6,3,41.68948000000,-87.70964400000,1.00000000000,rooftop
2/17/2016,1100 W. George St.*,Chicago,Il,5,1,1,41.93467800000,-87.65663700000,1.00000000000,rooftop
4/19/2016,1100 W. George St.,Chicago,Il,1,1,1,41.93467800000,-87.65663700000,1.00000000000,rooftop
12/8/2016,1100 W. Adams St.,Chicago,Il,1,1,1,41.87894700000,-87.65461200000,1.00000000000,range_interpolation
7/26/2016,11200 S. Spaulding Ave.,Chicago,Il,4,14,7,41.68946700000,-87.70333600000,1.00000000000,range_interpolation
1/19/2019,11200 S Drake Ave,Chicago,Il,1,1,1,41.68948000000,-87.70964400000,1.00000000000,rooftop
11/25/2018,11200 S. Albany Ave.,Chicago,Il,7,4,2,41.68957600000,-87.69867300000,1.00000000000,rooftop
2/11/2019,11200 S. Talman Ave.,Chicago,Il,13,5,1,41.68976000000,-87.68761400000,1.00000000000,rooftop
8/12/2018,11200 S Kedzie Ave.,Chicago,Il,2,2,1,41.68963200000,-87.70111000000,1.00000000000,rooftop
6/10/2016,11200 S. Forrestville Ave.,Chicago,Il,7,5,5,41.69081700000,-87.60958500000,1.00000000000,range_interpolation
2/13/2019,11200 S H Ave,Chicago,Il,7,4,1,41.88531000000,-87.62213000000,0.33000000000,place
11/11/2018,1100 E. 83rd St.,Chicago,Il,3,2,1,41.74419600000,-87.59869900000,1.00000000000,range_interpolation
8/3/2018,1100 W. Fullerton Ave.,Chicago,Il,1,1,1,41.92561500000,-87.65626400000,1.00000000000,rooftop
11/19/2017,1100 W. 111th St.,Chicago,Il,4,1,1,41.69253400000,-87.64985600000,1.00000000000,rooftop
6/15/2016,1100 E. Hyde Park Blvd.,Chicago,Il,1,1,1,41.80267100000,-87.59880100000,1.00000000000,rooftop
7/12/2016,1100 W. Oakdale Ave.,Chicago,Il,4,3,3,41.93558000000,-87.65658200000,1.00000000000,rooftop
12/4/2018,1100 W. 103rd Pl.,Chicago,Il,2,3,1,41.70621000000,-87.65029800000,1.00000000000,rooftop
2/19/2019,1100 N Wolcott Ave,Chicago,Il,1,1,1,41.90153700000,-87.67512900000,1.00000000000,rooftop
12/5/2017,1100 S. Michigan Ave.,Chicago,Il,2,1,1,41.86910400000,-87.62467600000,1.00000000000,rooftop
3/19/2016,11300 S. Laflin St.,Chicago,Il,1,1,1,41.68813500000,-87.66024100000,1.00000000000,range_interpolation
8/28/2018,1100 E. 45th St.,Chicago,Il,1,1,1,41.81340400000,-87.59933900000,1.00000000000,range_interpolation
7/1/2016,11300 S. Fairfield Ave.,Chicago,Il,6,14,6,41.68791300000,-87.69001000000,1.00000000000,rooftop
6/27/2017,11300 S. Central Park Ave.,Chicago,Il,2,2,2,41.68767200000,-87.71081300000,1.00000000000,rooftop
2/27/2019,11300 S Saint Louis Ave,Chicago,Il,4,4,2,41.68768200000,-87.70827000000,1.00000000000,rooftop
2/7/2017,11300 S. Carpenter St.,Chicago,Il,1,1,1,41.68852200000,-87.64869700000,1.00000000000,rooftop
12/11/2018,11300 S. Hamlin Ave.,Chicago,Il,2,7,1,41.68753300000,-87.71498800000,1.00000000000,rooftop
9/19/2016,11300 S. Lothair Ave.,Chicago,Il,1,1,1,41.68759400000,-87.67487200000,1.00000000000,range_interpolation
11/3/2018,11300 S. Avenue H,Chicago,Il,1,1,1,41.68989500000,-87.54010100000,1.00000000000,range_interpolation
6/13/2016,11300 S. Millard Ave.,Chicago,Il,3,5,1,41.68762200000,-87.71189700000,1.00000000000,rooftop
8/9/2016,11300 S. Central Park Ave.,Chicago,Il,2,3,4,41.68767200000,-87.71081300000,1.00000000000,rooftop
2/19/2019,11300 S Fairfield Ave,Chicago,Il,4,2,2,41.68791300000,-87.69001000000,1.00000000000,rooftop
1/23/2017,11300 S. Washtenaw Ave.,Chicago,Il,1,1,1,41.68794800000,-87.68878300000,1.00000000000,rooftop
3/8/2019,1100 E 81 St,Chicago,Il,1,3,1,41.74786400000,-87.59710400000,1.00000000000,range_interpolation
2/3/2019,1100 E 81st St,Chicago,Il,2,4,1,41.74786400000,-87.59710400000,1.00000000000,range_interpolation
8/20/2018,1100 W. Lunt Ave.,Chicago,Il,1,1,1,42.00906400000,-87.66022500000,1.00000000000,range_interpolation
10/30/2018,1100 W. Patterson Ave.,Chicago,Il,1,1,1,41.94818200000,-87.65742300000,1.00000000000,range_interpolation
2/20/2019,11300 S Central Park Ave,Chicago,Il,1,6,1,41.68767200000,-87.71081300000,1.00000000000,rooftop
9/19/2016,11300 S. Langley Ave.,Chicago,Il,4,3,3,41.68907000000,-87.60621800000,1.00000000000,rooftop
2/3/2019,11300 S Avenue G St,Chicago,Il,7,5,2,41.68985500000,-87.53166700000,1.00000000000,range_interpolation
7/10/2016,11300 S. Bell Ave.,Chicago,Il,3,6,3,41.68813800000,-87.67715500000,1.00000000000,rooftop
9/11/2016,11300 S. Hamlin Ave,Chicago,Il,2,2,2,41.68753300000,-87.71498800000,1.00000000000,rooftop
9/30/2016,11300 S. Lothair Ave.,Chicago,Il,3,8,5,41.68759400000,-87.67487200000,1.00000000000,range_interpolation
12/11/2018,11300 S. Hamlin Ave.,Chicago,Il,1,1,1,41.68753300000,-87.71498800000,1.00000000000,rooftop
8/21/2018,11300 S. Sawyer Ave.,Chicago,Il,3,8,3,41.68783300000,-87.70221000000,1.00000000000,rooftop
8/10/2018,11300 S Ridgeway Ave,Chicago,Il,6,7,2,41.68758900000,-87.71371900000,1.00000000000,range_interpolation
6/6/2017,1100 E. 83rd St.,Chicago,Il,1,1,1,41.74419600000,-87.59869900000,1.00000000000,range_interpolation
6/19/2016,1100 W. 25th St.,Chicago,Il,1,1,1,41.84682800000,-87.65494300000,1.00000000000,range_interpolation
11/28/2018,1100 W. Schubert Ave.,Chicago,Il,1,1,1,41.93061500000,-87.65620100000,1.00000000000,range_interpolation
6/13/2018,11300 S Avenue J,Chicago,Il,2,1,1,41.68987200000,-87.53407500000,1.00000000000,range_interpolation
8/17/2018,11300 S. Hamlin Ave.,Chicago,Il,1,2,1,41.68753300000,-87.71498800000,1.00000000000,rooftop
11/8/2016,11300 S. Drake Ave.,Chicago,Il,5,3,2,41.68770400000,-87.70957300000,1.00000000000,rooftop
11/2/2018,1100 N. Wolcott Ave.,Chicago,Il,1,1,1,41.90153700000,-87.67512900000,1.00000000000,rooftop
6/24/2018,1100 W. Granville Ave.,Chicago,Il,1,1,1,41.99481800000,-87.65858900000,1.00000000000,rooftop
3/8/2019,11300 S Sawyer St,Chicago,Il,5,10,1,41.68783300000,-87.70221000000,1.00000000000,rooftop
10/28/2016,11300 S. Drake Ave,Chicago,Il,1,2,1,41.68770400000,-87.70957300000,1.00000000000,rooftop
8/14/2016,11300 S. Prairie Ave.,Chicago,Il,5,9,6,41.68888600000,-87.61691500000,1.00000000000,range_interpolation
5/30/2016,11300 S. Kedzie Ave.,Chicago,Il,6,11,4,41.68782800000,-87.70103700000,1.00000000000,rooftop
7/8/2018,1100 W. Madison St.,Chicago,Il,1,1,1,41.88192100000,-87.65453800000,1.00000000000,rooftop
8/15/2016,11300 S. Longwood Dr.,Chicago,Il,2,2,1,41.68788400000,-87.67320900000,1.00000000000,rooftop
2/12/2019,11300 S. Champlain Ave.,Chicago,Il,2,1,2,41.68905700000,-87.60748300000,1.00000000000,rooftop
4/10/2016,11300 S. Church St.,Chicago,Il,2,1,1,41.68880000000,-87.66735100000,1.00000000000,rooftop
2/20/2016,11300 S. Church St.*,Chicago,Il,9,1,1,41.68880000000,-87.66735100000,1.00000000000,rooftop
3/14/2019,11300 S Lothair Ave,Chicago,Il,2,4,1,41.68759400000,-87.67487200000,1.00000000000,range_interpolation
5/21/2016,11300 S. Union Ave.,Chicago,Il,2,3,1,41.68860100000,-87.63984400000,1.00000000000,range_interpolation
6/8/2016,11300 S. Oakley Ave.,Chicago,Il,4,3,3,41.68767000000,-87.67902100000,1.00000000000,range_interpolation
8/26/2016,11300 S. St. Lawrence Ave.,Chicago,Il,10,5,4,41.68901800000,-87.60833900000,1.00000000000,range_interpolation
8/27/2017,1100 W Fullerton Ave,Chicago,Il,1,1,1,41.92561500000,-87.65626400000,1.00000000000,rooftop
6/3/2018,1100 W. Lill Ave.,Chicago,Il,1,1,1,41.92790800000,-87.65612500000,1.00000000000,range_interpolation
3/10/2019,11300 S Hamlin Ave,Chicago,Il,1,4,1,41.68753300000,-87.71498800000,1.00000000000,rooftop
11/18/2018,1100 W. Catalpa Ave.,Chicago,Il,1,1,1,41.98168100000,-87.65796400000,1.00000000000,range_interpolation
4/30/2018,1100 W. Taylor St.,Chicago,Il,1,1,1,41.86972500000,-87.65441700000,1.00000000000,rooftop
6/20/2018,1100 N. La Salle Dr.,Chicago,Il,1,1,1,41.90206300000,-87.63324900000,1.00000000000,rooftop
9/25/2018,1100 N. La Salle Dr.,Chicago,Il,1,1,1,41.90206300000,-87.63324900000,1.00000000000,rooftop
3/21/2017,1100 W. Jackson Blvd.,Chicago,Il,1,1,1,41.87808800000,-87.65493600000,1.00000000000,rooftop
11/15/2018,1100 W. Newport Ave.,Chicago,Il,1,1,1,41.94429100000,-87.65667200000,1.00000000000,range_interpolation
3/19/2019,11400 S Central Park Ave,Chicago,Il,3,2,1,41.68580600000,-87.71073700000,1.00000000000,rooftop
8/8/2016,11400 S. Central Park Ave.,Chicago,Il,12,13,12,41.68580600000,-87.71073700000,1.00000000000,rooftop
6/20/2016,11400 S. Homan Ave.,Chicago,Il,10,8,7,41.68636700000,-87.70582100000,1.00000000000,rooftop
7/19/2018,11400 S. Millard Ave.,Chicago,Il,4,11,1,41.68584100000,-87.71183500000,1.00000000000,rooftop
1/24/2019,11400 S Campbell Ave,Chicago,Il,1,3,1,41.68609900000,-87.68363200000,1.00000000000,rooftop
6/27/2016,11400 S. Hamlin Ave.,Chicago,Il,6,10,5,41.68560100000,-87.71501200000,1.00000000000,rooftop
10/20/2018,1100 N. Winchester Ave.,Chicago,Il,1,1,1,41.90154200000,-87.67598300000,1.00000000000,range_interpolation
11/6/2018,1100 W. Barry Ave.,Chicago,Il,1,1,1,41.93832200000,-87.65665400000,1.00000000000,rooftop
2/15/2017,1100 W. Oakdale Ave.,Chicago,Il,2,1,1,41.93558000000,-87.65658200000,1.00000000000,rooftop
2/26/2017,1100 W. Oakdale Ave.,Chicago,Il,2,1,1,41.93558000000,-87.65658200000,1.00000000000,rooftop
7/28/2018,11400 S Avenue J,Chicago,Il,3,4,2,41.68805700000,-87.53407500000,1.00000000000,range_interpolation
1/15/2019,11400 S Campbell Ave,Chicago,Il,3,4,1,41.68609900000,-87.68363200000,1.00000000000,rooftop
11/16/2018,11400 S. Talman Ave.,Chicago,Il,3,4,1,41.68613900000,-87.68749400000,1.00000000000,rooftop
3/1/2017,11400 S. Sawyer Ave.,Chicago,Il,1,1,1,41.68642400000,-87.70184300000,1.00000000000,range_interpolation
10/28/2018,1100 W. Dickens Ave.,Chicago,Il,1,1,1,41.91973500000,-87.65585300000,1.00000000000,range_interpolation
12/4/2018,1100 W. Oakdale Ave.,Chicago,Il,1,1,1,41.93558000000,-87.65658200000,1.00000000000,rooftop
8/10/2016,11400 S. Rockwell St.,Chicago,Il,2,1,1,41.68613300000,-87.68631800000,1.00000000000,rooftop
2/17/2019,11400 S Sawyer Ave,Chicago,Il,4,7,1,41.68642400000,-87.70184300000,1.00000000000,range_interpolation
2/22/2019,11400 S Elizabeth St,Chicago,Il,4,8,4,41.68661100000,-87.65350500000,1.00000000000,rooftop
7/25/2016,11400 S. Washtenaw Ave.,Chicago,Il,4,12,2,41.68612400000,-87.68870700000,1.00000000000,rooftop
5/30/2016,11400 S. St. Louis Ave.,Chicago,Il,4,2,1,41.68638500000,-87.70831500000,1.00000000000,rooftop
6/20/2016,11400 S. Washtenaw Ave.,Chicago,Il,4,4,5,41.68612400000,-87.68870700000,1.00000000000,rooftop
6/9/2016,1100 N. Sacramento Ave.,Chicago,Il,1,1,1,41.90078200000,-87.70190900000,1.00000000000,range_interpolation
1/21/2019,11400 S Sawyer Ave,Chicago,Il,4,6,1,41.68642400000,-87.70184300000,1.00000000000,range_interpolation
3/23/2017,11400 S. Washtenaw Ave.,Chicago,Il,3,1,1,41.68612400000,-87.68870700000,1.00000000000,rooftop
12/16/2018,11400 S. Homan Ave.,Chicago,Il,4,12,3,41.68636700000,-87.70582100000,1.00000000000,rooftop
6/15/2018,11400 S. Church St.,Chicago,Il,5,7,9,41.68712000000,-87.66830900000,1.00000000000,rooftop
10/23/2017,1100 W. Ohio St.,Chicago,Il,1,1,1,41.89204000000,-87.65581700000,1.00000000000,range_interpolation
8/12/2018,1100 W. School St.,Chicago,Il,1,1,1,41.94155600000,-87.65659100000,1.00000000000,range_interpolation
6/14/2016,1100 N. Lake Shore Dr.,Chicago,Il,10,1,1,41.90268100000,-87.62515900000,1.00000000000,rooftop
3/17/2019,11500 S H St,Chicago,Il,2,2,1,41.84387300000,-87.65189100000,0.60000000000,street_center
5/4/2016,1100 E. 56th St.,Chicago,Il,1,1,1,41.79338000000,-87.59973800000,1.00000000000,range_interpolation
11/1/2018,1100 W. Webster Ave.,Chicago,Il,1,1,1,41.92196500000,-87.65609600000,1.00000000000,rooftop
8/2/2017,1100 W. Farwell Ave.,Chicago,Il,3,1,1,42.00665300000,-87.65861600000,1.00000000000,range_interpolation
10/24/2016,11500 S. Bell Ave.,Chicago,Il,1,1,1,41.68400900000,-87.67704200000,1.00000000000,range_interpolation
9/22/2016,11500 S. Maplewood Ave.,Chicago,Il,3,7,9,41.68433900000,-87.68461200000,1.00000000000,range_interpolation
9/23/2016,11500 S. Maplewood Ave.,Chicago,Il,3,8,2,41.68433900000,-87.68461200000,1.00000000000,range_interpolation
6/8/2018,1100 N. Howe St.,Chicago,Il,1,1,1,41.90159500000,-87.64444700000,1.00000000000,range_interpolation
11/22/2017,1100 W. George St.,Chicago,Il,1,1,1,41.93467800000,-87.65663700000,1.00000000000,rooftop
8/8/2018,1100 W. Madison St.,Chicago,Il,1,1,1,41.88192100000,-87.65453800000,1.00000000000,rooftop
2/21/2019,11500 S May St,Chicago,Il,4,6,2,41.68481700000,-87.65066000000,1.00000000000,range_interpolation
6/5/2018,100 W. 127th St.,Chicago,Il,4,3,2,41.66364200000,-87.62315400000,1.00000000000,range_interpolation
8/22/2016,11600 S. Bell Ave.,Chicago,Il,2,1,1,41.68293400000,-87.67785600000,1.00000000000,rooftop
2/26/2019,11600 S Morgan St,Chicago,Il,2,2,1,41.68304900000,-87.64695600000,1.00000000000,range_interpolation
12/4/2018,11600 S. Justine St.,Chicago,Il,5,5,2,41.68289500000,-87.66068700000,1.00000000000,rooftop
6/28/2016,1100 W. Polk St.,Chicago,Il,5,3,2,41.87167200000,-87.65423400000,1.00000000000,range_interpolation
10/21/2018,1100 S. Plymouth Ct.,Chicago,Il,2,3,2,41.86887500000,-87.62870500000,1.00000000000,range_interpolation
6/30/2016,11700 S Justine St**,Chicago,Il,5,8,10,41.68107400000,-87.66063400000,1.00000000000,rooftop
10/29/2016,11700 S Justine St**,Chicago,Il,0,0,0,41.68107400000,-87.66063400000,1.00000000000,rooftop
1/21/2017,11700 S Justine St**,Chicago,Il,0,0,0,41.68107400000,-87.66063400000,1.00000000000,rooftop
2/17/2016,11700 S. Bell Ave.*,Chicago,Il,2,1,1,41.68075100000,-87.67729200000,1.00000000000,range_interpolation
4/22/2016,11700 S. Bell Ave.,Chicago,Il,4,2,1,41.68075100000,-87.67729200000,1.00000000000,range_interpolation
12/9/2016,11700 S. Bishop St.,Chicago,Il,5,3,1,41.68110700000,-87.65820300000,1.00000000000,rooftop
12/9/2016,11700 S. Harvard Ave.,Chicago,Il,3,5,6,41.68142300000,-87.63117400000,1.00000000000,range_interpolation
3/11/2019,11700 S Campbell Ave,Chicago,Il,2,10,2,41.68073300000,-87.68362000000,1.00000000000,rooftop
8/6/2016,11700 S. Bell Ave.,Chicago,Il,8,9,11,41.68075100000,-87.67729200000,1.00000000000,range_interpolation
11/4/2016,11700 S. Bell Ave.,Chicago,Il,0,0,0,41.68075100000,-87.67729200000,1.00000000000,range_interpolation
9/8/2016,11700 S. Loomis St,Chicago,Il,2,2,2,41.68036000000,-87.65568300000,1.00000000000,rooftop
7/26/2016,11700 S. Campbell Ave.,Chicago,Il,3,4,2,41.68073300000,-87.68362000000,1.00000000000,rooftop
2/6/2019,11700 S Throop St,Chicago,Il,6,3,1,41.68115800000,-87.65455100000,1.00000000000,rooftop
2/9/2017,11700 S. Elizabeth St.,Chicago,Il,5,6,1,41.68117500000,-87.65333500000,1.00000000000,rooftop
7/16/2018,1100 S. Plymouth Ct.,Chicago,Il,3,3,3,41.86887500000,-87.62870500000,1.00000000000,range_interpolation
2/24/2017,1100 S. Plymouth Ct.,Chicago,Il,3,1,1,41.86887500000,-87.62870500000,1.00000000000,range_interpolation
2/28/2018,11800 S. Vincennes Ave.,Chicago,Il,1,1,1,41.67975000000,-87.67093400000,1.00000000000,rooftop
4/24/2018,11800 S. Sangamon St.,Chicago,Il,4,4,3,41.67945900000,-87.64597300000,1.00000000000,rooftop
7/25/2016,11800 S. Campbell Ave.,Chicago,Il,6,6,6,41.67891600000,-87.68356200000,1.00000000000,rooftop
1/31/2019,11800 S Loomis St,Chicago,Il,3,6,2,41.67927300000,-87.65693100000,1.00000000000,rooftop
2/2/2019,11800 S Yale Ave,Chicago,Il,1,1,1,41.67962700000,-87.62871600000,1.00000000000,range_interpolation
3/4/2019,11800 S Oakley Ave,Chicago,Il,2,2,1,41.67896000000,-87.67940900000,1.00000000000,rooftop
2/18/2019,11800 S Bell Ave,Chicago,Il,5,3,2,41.67895000000,-87.67797100000,1.00000000000,rooftop
6/10/2018,100 E. 18 St.,Chicago,Il,1,1,1,41.85802700000,-87.62393200000,1.00000000000,range_interpolation
6/13/2018,100 S. Waller Ave.,Chicago,Il,1,1,1,41.87874200000,-87.76822700000,1.00000000000,range_interpolation
9/23/2018,100 W. Chestnut St.,Chicago,Il,1,1,1,41.89782000000,-87.63127800000,1.00000000000,range_interpolation
1/23/2019,11900 S Union Ave,Chicago,Il,1,1,1,41.67768900000,-87.63949900000,1.00000000000,range_interpolation
9/30/2016,11900 S. Wallace St.,Chicago,Il,3,3,2,41.67771600000,-87.63709200000,1.00000000000,range_interpolation
2/24/2019,00 W 115th St,Chicago,Il,3,7,7,41.68474500000,-87.66552300000,0.60000000000,street_center
10/27/2016,100 E. 70th St.,Chicago,Il,1,1,1,41.76754800000,-87.62174100000,1.00000000000,range_interpolation
6/5/2018,100 W. 127th St.,Chicago,Il,5,8,4,41.66364200000,-87.62315400000,1.00000000000,range_interpolation
11/15/2016,12000 S. Stewart Ave.,Chicago,Il,1,1,1,41.67594400000,-87.63257100000,1.00000000000,rooftop
11/19/2018,1200 S. Prairie Ave.,Chicago,Il,1,1,1,41.86711400000,-87.62161700000,0.70000000000,nearest_rooftop_match
8/21/2018,1200 S. Prairie Ave.,Chicago,Il,1,1,1,41.86711400000,-87.62161700000,0.70000000000,nearest_rooftop_match
8/19/2018,1200 W. Adams St.,Chicago,Il,1,1,1,41.87890600000,-87.65705600000,1.00000000000,range_interpolation
10/2/2018,1200 W. Diversey Pkwy.,Chicago,Il,1,1,1,41.93270800000,-87.65947300000,0.80000000000,nearest_rooftop_match
1/4/2019,12000 S. Justine St.,Chicago,Il,3,1,1,41.67558300000,-87.66011600000,1.00000000000,range_interpolation
10/30/2016,1200 E. 50th St.,Chicago,Il,3,16,12,41.80433000000,-87.59673600000,1.00000000000,range_interpolation
,1200 E. 50th St.,Chicago,Il,0,0,0,41.80433000000,-87.59673600000,1.00000000000,range_interpolation
11/27/2018,1200 W Cornelia Ave.,Chicago,Il,14,9,4,41.94516500000,-87.65912100000,1.00000000000,range_interpolation
7/1/2018,1200 W Lexington St,Chicago,Il,1,1,1,41.87250000000,-87.65702500000,1.00000000000,rooftop
5/27/2018,1200 W. Sherwin Ave.,Chicago,Il,1,1,1,42.01530100000,-87.66280800000,1.00000000000,rooftop
6/5/2016,1200 W. 33rd Pl.,Chicago,Il,1,1,1,41.83371300000,-87.65610400000,1.00000000000,rooftop
6/6/2016,1200 W. Arthur Ave.,Chicago,Il,1,1,1,42.00028900000,-87.66071100000,1.00000000000,range_interpolation
7/3/2018,100 W. Chestnut St.,Chicago,Il,1,1,1,41.89782000000,-87.63127800000,1.00000000000,range_interpolation
12/5/2016,1200 E. 54th St.,Chicago,Il,1,1,1,41.79813600000,-87.59660900000,1.00000000000,range_interpolation
9/4/2018,1200 E. 54th St.,Chicago,Il,1,1,1,41.79813600000,-87.59660900000,1.00000000000,range_interpolation
11/17/2016,12100 S. Lafayette Ave.,Chicago,Il,2,2,1,41.67416900000,-87.62409800000,1.00000000000,rooftop
6/7/2018,12100 S. Stewart Ave.,Chicago,Il,6,7,5,41.67407600000,-87.63251400000,1.00000000000,rooftop
8/5/2018,1200 N. La Salle Dr.,Chicago,Il,1,1,1,41.90405600000,-87.63328700000,1.00000000000,rooftop
3/13/2017,1200 N. Wood St.,Chicago,Il,1,1,1,41.90341600000,-87.67238100000,1.00000000000,range_interpolation
9/5/2018,1200 E Madison Park.,Chicago,Il,1,1,1,41.80334800000,-87.59631900000,1.00000000000,rooftop
6/20/2016,1200 W. George St.,Chicago,Il,1,1,1,41.93422600000,-87.65877600000,1.00000000000,range_interpolation
6/27/2018,1200 W Sunnyside Ave,Chicago,Il,1,1,1,41.96432000000,-87.66003500000,1.00000000000,rooftop
10/29/2018,1200 W. 33rd St.,Chicago,Il,1,1,1,41.83415100000,-87.65591800000,1.00000000000,range_interpolation
6/21/2017,1200 W. Cornelia Ave.,Chicago,Il,10,4,6,41.94516500000,-87.65912100000,1.00000000000,range_interpolation
8/31/2018,1200 W. Eddy St.,Chicago,Il,1,1,1,41.94649000000,-87.65937700000,1.00000000000,rooftop
11/27/2017,1200 W. Fletcher St.,Chicago,Il,1,2,2,41.93912700000,-87.65914800000,1.00000000000,rooftop
10/11/2016,12100 S. Stewart Ave.,Chicago,Il,4,10,11,41.67407600000,-87.63251400000,1.00000000000,rooftop
1/9/2017,12100 S. Stewart Ave.,Chicago,Il,0,0,0,41.67407600000,-87.63251400000,1.00000000000,rooftop
8/3/2016,12100 S. Edbrooke Ave,Chicago,Il,9,7,5,41.67415900000,-87.61908400000,1.00000000000,range_interpolation
2/20/2017,1200 E. 56th St.,Chicago,Il,1,1,1,41.79341700000,-87.59649900000,1.00000000000,range_interpolation
11/18/2018,1200 W. School St.,Chicago,Il,1,1,1,41.94150900000,-87.65902100000,1.00000000000,range_interpolation
7/17/2018,1200 W. Hood Ave.,Chicago,Il,1,1,1,41.99347500000,-87.66037800000,1.00000000000,range_interpolation
8/14/2018,1200 E. 50th St.,Chicago,Il,1,1,1,41.80433000000,-87.59673600000,1.00000000000,range_interpolation
9/2/2018,1200 W. Jarvis Ave.,Chicago,Il,1,1,1,42.01598300000,-87.66335800000,1.00000000000,range_interpolation
12/22/2018,100 S. Bell Ave.,Chicago,Il,1,1,1,41.87975800000,-87.68282600000,1.00000000000,range_interpolation
10/4/2016,1200 E. 50th St.,Chicago,Il,5,2,4,41.80433000000,-87.59673600000,1.00000000000,range_interpolation
2/25/2016,1200 N. State Pkwy.*,Chicago,Il,2,1,1,41.90409700000,-87.62905600000,1.00000000000,rooftop
,1200 N. State Pkwy.,Chicago,Il,0,0,0,41.90409700000,-87.62905600000,1.00000000000,rooftop
7/15/2018,1200 S. Federal St.,Chicago,Il,1,1,1,41.86669700000,-87.62962500000,1.00000000000,rooftop
7/9/2018,1200 W. Carmen Ave.,Chicago,Il,1,1,1,41.97446800000,-87.65982100000,1.00000000000,range_interpolation
6/20/2018,12200 S. La Salle St.,Chicago,Il,2,8,2,41.67235800000,-87.62644900000,1.00000000000,rooftop
7/27/2016,1200 E. 54th St.,Chicago,Il,1,1,1,41.79813600000,-87.59660900000,1.00000000000,range_interpolation
7/11/2018,1200 E. Hyde Park Blvd.,Chicago,Il,1,1,1,41.80278900000,-87.59584000000,1.00000000000,rooftop
4/15/2018,1200 N. La Salle Dr.,Chicago,Il,1,1,1,41.90405600000,-87.63328700000,1.00000000000,rooftop
8/17/2016,1200 W. 18th St.,Chicago,Il,1,1,1,41.85777000000,-87.65826500000,1.00000000000,range_interpolation
8/6/2018,1200 W. Greenleaf Ave.,Chicago,Il,1,1,1,42.01021300000,-87.66045100000,1.00000000000,range_interpolation
5/23/2016,12200 S. La Salle St.,Chicago,Il,6,12,3,41.67235800000,-87.62644900000,1.00000000000,rooftop
11/26/2016,1200 N. Noble St.,Chicago,Il,2,2,1,41.90355900000,-87.66262700000,1.00000000000,range_interpolation
8/12/2018,1200 N. Wolcott Ave.,Chicago,Il,1,1,1,41.90338000000,-87.67482100000,1.00000000000,range_interpolation
7/2/2017,1200 W. Taylor St.,Chicago,Il,1,1,1,41.86957800000,-87.65731300000,1.00000000000,rooftop
2/6/2017,1200 N. Astor St.,Chicago,Il,4,5,3,41.90421600000,-87.62712900000,1.00000000000,rooftop
12/4/2018,12200 S. Eggleston Ave.,Chicago,Il,3,3,3,41.67228900000,-87.63366000000,1.00000000000,rooftop
2/20/2016,1200 E. 52nd St.,Chicago,Il,1,1,1,41.80107200000,-87.59667600000,1.00000000000,range_interpolation
2/1/2019,1200 E. 57th St.,Chicago,Il,2,2,1,41.79159600000,-87.59645700000,1.00000000000,range_interpolation
6/14/2016,1200 W. Hood Ave.,Chicago,Il,1,1,1,41.99347500000,-87.66037800000,1.00000000000,range_interpolation
10/25/2018,1200 W. Argyle St.,Chicago,Il,1,1,1,41.97280500000,-87.66010300000,1.00000000000,rooftop
7/19/2016,12200 S. La Salle St.,Chicago,Il,4,7,9,41.67235800000,-87.62644900000,1.00000000000,rooftop
3/3/2019,12200 S Loomis St,Chicago,Il,7,9,2,41.67200600000,-87.65669000000,1.00000000000,rooftop
6/22/2018,1200 N Greenview Ave,Chicago,Il,1,1,1,41.90352100000,-87.66504400000,1.00000000000,range_interpolation
7/27/2018,1200 N. Greenview Ave.,Chicago,Il,1,1,1,41.90352100000,-87.66504400000,1.00000000000,range_interpolation
3/5/2019,1200 W Ohio St,Chicago,Il,1,1,1,41.89238100000,-87.65742000000,1.00000000000,range_interpolation
11/21/2016,1200 W. Carmen Ave.,Chicago,Il,1,1,1,41.97446800000,-87.65982100000,1.00000000000,range_interpolation
12/25/2018,1200 N. Wood St.,Chicago,Il,1,1,1,41.90341600000,-87.67238100000,1.00000000000,range_interpolation
6/22/2018,1200 N. Noble St.,Chicago,Il,1,1,1,41.90355900000,-87.66262700000,1.00000000000,range_interpolation
7/13/2018,1200 W. Lunt Ave.,Chicago,Il,2,2,2,42.00903300000,-87.66208800000,1.00000000000,range_interpolation
11/25/2018,1200 N. Cleaver St.,Chicago,Il,1,1,1,41.90379200000,-87.66421700000,1.00000000000,rooftop
10/1/2018,1200 W. Foster Ave.,Chicago,Il,1,1,1,41.97617300000,-87.65986500000,1.00000000000,range_interpolation
7/15/2018,1200 W. Madison St.,Chicago,Il,1,1,1,41.88150100000,-87.65714200000,1.00000000000,range_interpolation
5/4/2017,100 S. Green St.,Chicago,Il,1,1,1,41.88032100000,-87.64849100000,1.00000000000,range_interpolation
5/19/2016,1200 E. 46th St.,Chicago,Il,1,1,1,41.81086800000,-87.59685300000,1.00000000000,range_interpolation
5/18/2016,1200 E. 53rd St.,Chicago,Il,1,1,1,41.79987500000,-87.59534500000,1.00000000000,rooftop
10/5/2016,1200 W. Greenleaf Ave.,Chicago,Il,1,1,1,42.01021300000,-87.66045100000,1.00000000000,range_interpolation
8/6/2018,1200 W. Albion Ave.,Chicago,Il,2,6,6,42.00240000000,-87.66078200000,1.00000000000,range_interpolation
6/11/2016,1200 S. Harding Ave.,Chicago,Il,1,1,1,41.86603900000,-87.72394600000,1.00000000000,range_interpolation
7/8/2018,1200 W. Carmen Ave.,Chicago,Il,1,1,1,41.97446800000,-87.65982100000,1.00000000000,range_interpolation
8/21/2018,1200 W. Greenleaf Ave.,Chicago,Il,1,1,1,42.01021300000,-87.66045100000,1.00000000000,range_interpolation
5/13/2016,12300 S. Emerald St.,Chicago,Il,1,1,1,41.67039700000,-87.64081300000,0.60000000000,rooftop
5/20/2018,1200 N. Damen Ave.,Chicago,Il,1,1,1,41.90334000000,-87.67725700000,1.00000000000,range_interpolation
11/11/2016,1200 N. Kedzie Ave.,Chicago,Il,1,1,1,41.90299100000,-87.70716400000,1.00000000000,rooftop
3/4/2019,1200 W Farwell Ave,Chicago,Il,2,2,1,42.00661700000,-87.66129400000,1.00000000000,range_interpolation
8/7/2018,1200 W Hood Ave.,Chicago,Il,1,1,1,41.99347500000,-87.66037800000,1.00000000000,range_interpolation
8/16/2018,1200 W. Lunt Ave.,Chicago,Il,13,4,4,42.00903300000,-87.66208800000,1.00000000000,range_interpolation
11/18/2018,1200 W. Oakdale Ave.,Chicago,Il,1,1,1,41.93539400000,-87.65914100000,1.00000000000,rooftop
11/2/2016,1200 E. Madison Park,Chicago,Il,1,1,1,41.80334800000,-87.59631900000,1.00000000000,rooftop
8/2/2017,1200 N. Dearborn St.,Chicago,Il,2,1,1,41.90415400000,-87.63041700000,1.00000000000,rooftop
10/30/2018,1200 Sw. George St.,Chicago,Il,1,1,1,41.93422600000,-87.65877600000,0.90000000000,range_interpolation
11/29/2018,1200 W. George St.,Chicago,Il,1,1,1,41.93422600000,-87.65877600000,1.00000000000,range_interpolation
10/12/2016,1200 W. George St.,Chicago,Il,1,1,1,41.93422600000,-87.65877600000,1.00000000000,range_interpolation
3/19/2018,1200 E. 57th St. House,Chicago,Il,1,1,1,41.79159600000,-87.59645700000,1.00000000000,range_interpolation
6/22/2016,1200 N. Damen Ave.,Chicago,Il,1,1,1,41.90334000000,-87.67725700000,1.00000000000,range_interpolation
6/17/2016,1200 S. Springfield Ave.,Chicago,Il,1,3,2,41.86605500000,-87.72273500000,1.00000000000,range_interpolation
8/22/2018,1200 W Glenlake Ave.,Chicago,Il,9,7,7,41.99257800000,-87.66035000000,1.00000000000,range_interpolation
6/12/2017,1200 N. Artesian Ave.,Chicago,Il,10,3,3,41.90315300000,-87.68825700000,1.00000000000,range_interpolation
7/26/2018,1200 W. Jackson Blvd.,Chicago,Il,1,1,1,41.87764100000,-87.65702000000,1.00000000000,range_interpolation
2/17/2019,1200 N Hoyne Ave,Chicago,Il,3,3,7,41.90329600000,-87.67969900000,1.00000000000,range_interpolation
7/11/2018,1200 N. Lake Shore Dr.,Chicago,Il,1,1,1,41.90419500000,-87.62548700000,1.00000000000,rooftop
2/28/2019,1200 W 74th St,Chicago,Il,1,1,1,41.75944500000,-87.65397200000,1.00000000000,range_interpolation
12/29/2018,1200 W. Monroe St.,Chicago,Il,1,1,1,41.88080400000,-87.65747400000,1.00000000000,rooftop
5/24/2018,1200 W. Newport Ave.,Chicago,Il,1,1,1,41.94467000000,-87.65934900000,1.00000000000,rooftop
4/3/2017,1200 E. Madison Park,Chicago,Il,2,7,1,41.80334800000,-87.59631900000,1.00000000000,rooftop
9/14/2018,1200 W. Erie St.,Chicago,Il,1,1,1,41.89334800000,-87.65744300000,1.00000000000,range_interpolation
12/2/2018,1200 W. Henderson St.,Chicago,Il,1,1,1,41.94241000000,-87.65961100000,1.00000000000,range_interpolation
10/8/2016,1200 W. Victoria St.,Chicago,Il,11,4,4,41.98680000000,-87.66016900000,1.00000000000,range_interpolation
2/4/2019,12400 S. La Salle St.,Chicago,Il,4,1,1,41.66873600000,-87.62595800000,1.00000000000,range_interpolation
2/25/2016,12400 S. Yale Ave.*,Chicago,Il,4,8,1,41.66872400000,-87.62872100000,1.00000000000,rooftop
4/2/2016,12400 S. Yale Ave.,Chicago,Il,4,12,2,41.66872400000,-87.62872100000,1.00000000000,rooftop
11/26/2016,1200 W. Fullerton Ave.,Chicago,Il,1,1,1,41.92560600000,-87.65870100000,1.00000000000,rooftop
9/28/2018,1200 N. Greenview Ave.,Chicago,Il,1,1,1,41.90352100000,-87.66504400000,1.00000000000,range_interpolation
8/13/2018,1200 N. State Pkwy.,Chicago,Il,6,11,6,41.90409700000,-87.62905600000,1.00000000000,rooftop
10/24/2016,1200 W. Granville Ave.,Chicago,Il,1,1,1,41.99483400000,-87.66077200000,1.00000000000,rooftop
7/6/2018,1200 W. North Shore Ave.,Chicago,Il,1,1,1,42.00378000000,-87.66121500000,1.00000000000,range_interpolation
6/11/2018,1200 N. Maplewood Ave.,Chicago,Il,1,1,1,41.90313200000,-87.69072100000,1.00000000000,range_interpolation
6/14/2016,1200 W. Granville Ave.,Chicago,Il,1,1,1,41.99483400000,-87.66077200000,1.00000000000,rooftop
10/22/2018,1200 W. Carmen Ave.,Chicago,Il,11,7,5,41.97446800000,-87.65982100000,1.00000000000,range_interpolation
11/17/2018,1200 W. Granville Ave.,Chicago,Il,4,2,2,41.99483400000,-87.66077200000,1.00000000000,rooftop
8/3/2018,1200 W. Foster Ave.,Chicago,Il,1,1,1,41.97617300000,-87.65986500000,1.00000000000,range_interpolation
12/28/2018,1200 S. Federal St.,Chicago,Il,1,1,1,41.86669700000,-87.62962500000,1.00000000000,rooftop
6/15/2018,1200 W. Grace St.,Chicago,Il,3,7,2,41.95089800000,-87.65926800000,1.00000000000,range_interpolation
11/4/2018,1200 W. Roscoe St.,Chicago,Il,1,1,1,41.94372400000,-87.65930000000,1.00000000000,rooftop
7/7/2018,1200 W Melrose St,Chicago,Il,1,1,1,41.94058300000,-87.65899200000,1.00000000000,range_interpolation
11/27/2018,1200 W. Argyle St. St.,Chicago,Il,6,4,2,41.97280500000,-87.66010300000,1.00000000000,rooftop
12/25/2018,1200 W. Westgate Ter.,Chicago,Il,2,4,1,41.87375200000,-87.65996800000,1.00000000000,range_interpolation
2/28/2019,100 E. 13th St.,Chicago,Il,1,1,1,41.86593400000,-87.62411300000,1.00000000000,range_interpolation
12/1/2016,100 E. 21st St.,Chicago,Il,1,1,1,41.85443300000,-87.62385100000,1.00000000000,range_interpolation
6/17/2018,100 E. 21st St.,Chicago,Il,1,1,1,41.85443300000,-87.62385100000,1.00000000000,range_interpolation
7/18/2016,1200 S. Indiana Ave.,Chicago,Il,1,1,1,41.86741200000,-87.62267200000,1.00000000000,range_interpolation
12/22/2018,1200 S. Michigan Ave.,Chicago,Il,1,1,1,41.86738700000,-87.62415100000,1.00000000000,range_interpolation
12/1/2016,1200 S. Michigan Ave.,Chicago,Il,1,1,1,41.86738700000,-87.62415100000,1.00000000000,range_interpolation
8/31/2016,1200 W. Columbia Ave.,Chicago,Il,1,1,1,42.00438100000,-87.66084800000,1.00000000000,range_interpolation
10/7/2016,1200 W. Ardmore Ave.,Chicago,Il,1,1,1,41.98798400000,-87.66149200000,1.00000000000,range_interpolation
2/3/2019,1200 W Norwood St,Chicago,Il,4,8,2,41.99167200000,-87.66032200000,1.00000000000,range_interpolation
10/26/2018,1200 W Elmdale Ave.,Chicago,Il,3,2,2,41.99076500000,-87.66029300000,1.00000000000,range_interpolation
8/19/2018,1200 W. Jackson Blvd.,Chicago,Il,1,1,1,41.87764100000,-87.65702000000,1.00000000000,range_interpolation
11/8/2017,1200 W. Norwood St.,Chicago,Il,730,17,19,41.99167200000,-87.66032200000,1.00000000000,range_interpolation
12/12/2017,1200 W. Norwood St.,Chicago,Il,0,0,0,41.99167200000,-87.66032200000,1.00000000000,range_interpolation
2/17/2019,12500 S Yale Ave,Chicago,Il,4,8,2,41.66691700000,-87.62866500000,1.00000000000,rooftop
12/10/2018,12500 S. Michigan Ave.,Chicago,Il,2,7,1,41.66620800000,-87.62008600000,1.00000000000,range_interpolation
3/30/2017,1200 N. Sandburg Ter.,Chicago,Il,1,1,1,41.90405000000,-87.63144400000,0.20000000000,range_interpolation
8/23/2018,1200 S State St.,Chicago,Il,1,1,1,41.90409700000,-87.62905600000,1.00000000000,rooftop
8/4/2018,1200 S. State St.,Chicago,Il,1,1,1,41.90409700000,-87.62905600000,1.00000000000,rooftop
6/8/2016,1200 W. Victoria St.,Chicago,Il,7,5,29,41.98680000000,-87.66016900000,1.00000000000,range_interpolation
9/1/2016,1200 W. Victoria St.,Chicago,Il,0,0,0,41.98680000000,-87.66016900000,1.00000000000,range_interpolation
10/2/2018,1200 W. Carmen Ave.,Chicago,Il,1,1,1,41.97446800000,-87.65982100000,1.00000000000,range_interpolation
7/3/2018,1200 W. Hood Ave.,Chicago,Il,1,1,1,41.99347500000,-87.66037800000,1.00000000000,range_interpolation
7/18/2018,1200 W. Granville Ave.,Chicago,Il,1,1,1,41.99483400000,-87.66077200000,1.00000000000,rooftop
2/20/2019,1200 W. Wellington Ave.,Chicago,Il,1,1,1,41.93648100000,-87.65907000000,1.00000000000,rooftop
11/6/2018,1200 W. Montrose Ave.,Chicago,Il,1,1,1,41.96156500000,-87.65958500000,1.00000000000,range_interpolation
2/20/2017,1200 W. Winona St.,Chicago,Il,1,1,1,41.97527800000,-87.65984200000,1.00000000000,range_interpolation
6/18/2018,1200 N. Bosworth Ave.,Chicago,Il,1,1,1,41.90351000000,-87.66615200000,1.00000000000,range_interpolation
9/6/2017,1200 N. Mayfield Ave.,Chicago,Il,7,8,7,41.90218400000,-87.77293700000,1.00000000000,range_interpolation
9/27/2018,1200 N. Dearborn St.,Chicago,Il,1,1,1,41.90415400000,-87.63041700000,1.00000000000,rooftop
7/31/2016,1200 N. Dearborn St.,Chicago,Il,1,1,1,41.90415400000,-87.63041700000,1.00000000000,rooftop
11/6/2018,1200 W. Lexington St.,Chicago,Il,3,2,2,41.87250000000,-87.65702500000,1.00000000000,rooftop
8/9/2018,12600 S State St.,Chicago,Il,4,7,4,41.66489100000,-87.62253600000,1.00000000000,rooftop
7/2/2016,12600 S. Wallace St.,Chicago,Il,2,1,1,41.66501000000,-87.63701700000,1.00000000000,rooftop
8/25/2018,1200 W. Carmen Ave.,Chicago,Il,1,1,1,41.97446800000,-87.65982100000,1.00000000000,range_interpolation
7/10/2018,1200 W Norwood St,Chicago,Il,5,14,6,41.99167200000,-87.66032200000,1.00000000000,range_interpolation
9/2/2018,1200 W. Argyle St.,Chicago,Il,2,2,4,41.97280500000,-87.66010300000,1.00000000000,rooftop
12/1/2018,1200 W. Pratt Blvd.,Chicago,Il,1,1,1,42.00539000000,-87.66091900000,1.00000000000,range_interpolation
8/19/2018,1200 W. Wilson Ave.,Chicago,Il,1,1,1,41.96562600000,-87.65996600000,1.00000000000,rooftop
5/19/2018,1200 W. Westgate Ter.,Chicago,Il,3,4,2,41.87375200000,-87.65996800000,1.00000000000,range_interpolation
6/26/2018,1200 W. Ardmore Ave.,Chicago,Il,8,4,4,41.98798400000,-87.66149200000,1.00000000000,range_interpolation
2/23/2019,12700 S Union Ave,Chicago,Il,5,10,3,41.66313400000,-87.64057100000,1.00000000000,rooftop
